{
  "meta": {
    "generated_at": "2026-04-19 15:51",
    "total_events": 999,
    "events_with_coords": 981,
    "unique_locations": 143,
    "coord_system": "WGS84",
    "date_range": [
      "1901-08-26",
      "1972-01-10"
    ]
  },
  "phases": [
    {
      "id": 1,
      "name": "早年求学",
      "start": "1901-08-26",
      "end": "1923-11-01",
      "color": "#4A90D9"
    },
    {
      "id": 2,
      "name": "武装革命",
      "start": "1923-11-02",
      "end": "1937-09-29",
      "color": "#E84C3D"
    },
    {
      "id": 3,
      "name": "新四军抗战",
      "start": "1937-09-30",
      "end": "1945-10-25",
      "color": "#F39C12"
    },
    {
      "id": 4,
      "name": "解放战争",
      "start": "1945-10-26",
      "end": "1949-05-27",
      "color": "#8E44AD"
    },
    {
      "id": 5,
      "name": "外交建设",
      "start": "1949-05-28",
      "end": "1972-01-10",
      "color": "#27AE60"
    }
  ],
  "events": [
    {
      "id": 1,
      "date": "1901-08-26",
      "date_num": 19010826,
      "year": 1901,
      "month": 8,
      "day": 26,
      "location": "正沟湾村",
      "title": "陈毅出生（正沟湾村）",
      "description": "陈毅出生于四川省中部乐至县薛苞镇正沟湾村（又名“药师湾”）一栋明朝年间的有3重院落的老式庭院——“药师院”。",
      "phase": 1,
      "lng": 105.01161166648834,
      "lat": 30.27682571555633,
      "has_coords": true,
      "is_international": false
    },
    {
      "id": 25,
      "date": "1905-04-19",
      "date_num": 19050419,
      "year": 1905,
      "month": 4,
      "day": 19,
      "location": "梅岭",
      "title": "陈毅写作《梅岭三章》（梅岭）",
      "description": "陈毅在梅岭山上被敌四十六师围困20余日，苦虑不得脱身，写出“绝笔”——《梅岭三章》诗，表达献身革命的决心和革命必胜的信念。",
      "phase": 1,
      "lng": 114.29777643398899,
      "lat": 25.238376746574193,
      "has_coords": true,
      "is_international": false
    },
    {
      "id": 160,
      "date": "1918-05-01",
      "date_num": 19180501,
      "year": 1918,
      "month": 5,
      "day": 1,
      "location": "成都市",
      "title": "陈毅就读留法预备学校（成都市）",
      "description": "陈毅等备取生始入学。学校学制为一年。开设的主要课程为法文，其次为代数、几何、物理、美术等，为到法国工读作准备。",
      "phase": 1,
      "lng": 104.06429452275079,
      "lat": 30.575253858919588,
      "has_coords": true,
      "is_international": false
    },
    {
      "id": 2,
      "date": "1919-04-16",
      "date_num": 19190416,
      "year": 1919,
      "month": 4,
      "day": 16,
      "location": "成都市",
      "title": "陈毅中选（成都市）",
      "description": "学校张榜毕业考试结果，陈毅为第15名，兄陈孟熙为第14名，兄弟俩双双中选。",
      "phase": 1,
      "lng": 104.06429452275079,
      "lat": 30.575253858919588,
      "has_coords": true,
      "is_international": false
    },
    {
      "id": 161,
      "date": "1919-06-01",
      "date_num": 19190601,
      "year": 1919,
      "month": 6,
      "day": 1,
      "location": "沙河铺",
      "title": "陈毅启程赴法（沙河铺）",
      "description": "上午，成都留法预备学校第一批赴法勤工俭学生原定牛市口会齐出发，因是日恰逢赶场（集市贸易），遂临时改在沙河铺集合启程。",
      "phase": 1,
      "lng": 104.12797401088643,
      "lat": 30.680909753673927,
      "has_coords": true,
      "is_international": false
    },
    {
      "id": 3,
      "date": "1919-08-12",
      "date_num": 19190812,
      "year": 1919,
      "month": 8,
      "day": 12,
      "location": "上海市",
      "title": "陈毅乘船前往法国（上海市）",
      "description": "陈毅和同学等从二洋泾桥码头登上法国“麦浪”（Manam）号商船。",
      "phase": 1,
      "lng": 121.46917694072306,
      "lat": 31.23234226242273,
      "has_coords": true,
      "is_international": false
    },
    {
      "id": 4,
      "date": "1920-04-01",
      "date_num": 19200401,
      "year": 1920,
      "month": 4,
      "day": 1,
      "location": "巴黎",
      "title": "陈毅进施奈德公司做工（巴黎）",
      "description": "经法华教育会介绍，陈毅与兄陈孟熙等4人进巴黎近郊克里西门外施奈德公司（Etablissement Schneider）所属的一个分厂做工。",
      "phase": 1,
      "lng": 2.3522,
      "lat": 48.8566,
      "has_coords": true,
      "is_international": true
    },
    {
      "id": 5,
      "date": "1920-05-01",
      "date_num": 19200501,
      "year": 1920,
      "month": 5,
      "day": 1,
      "location": "巴黎",
      "title": "陈毅参与法国大规模罢工（巴黎）",
      "description": "国际劳动节，法国工人举行大规模罢工。陈毅与本厂同学开会，决定与工人一起行动，为国争光。受到法国工人热烈欢迎。",
      "phase": 1,
      "lng": 2.3522,
      "lat": 48.8566,
      "has_coords": true,
      "is_international": true
    },
    {
      "id": 162,
      "date": "1921-06-30",
      "date_num": 19210630,
      "year": 1921,
      "month": 6,
      "day": 30,
      "location": "巴黎",
      "title": "陈毅同周恩来等召开拒款大会（巴黎）",
      "description": "下午2时30分，和周恩来、刘清扬、张君劢、李树华、赵志游等300多名代表在巴黎哲人厅召开拒款大会。大会主席为赵志游。",
      "phase": 1,
      "lng": 2.3522,
      "lat": 48.8566,
      "has_coords": true,
      "is_international": true
    },
    {
      "id": 163,
      "date": "1921-09-17",
      "date_num": 19210917,
      "year": 1921,
      "month": 9,
      "day": 17,
      "location": "巴黎",
      "title": "陈毅成为勤工俭学联合委员会委员（巴黎）",
      "description": "各地勤工俭学生代表蔡和森、赵世炎、李隆郅、李维汉、王若飞、陈毅、向警予、罗学瓒、张昆弟、徐特立、萧三等100多人，在巴黎召开大会，正式成立各地勤工俭学联合委员会，陈毅被推为该委员会委员。",
      "phase": 1,
      "lng": 2.3522,
      "lat": 48.8566,
      "has_coords": true,
      "is_international": true
    },
    {
      "id": 164,
      "date": "1921-11-23",
      "date_num": 19211123,
      "year": 1921,
      "month": 11,
      "day": 23,
      "location": "上海市",
      "title": "陈毅抵达黄浦江码头（上海市）",
      "description": "下午5时，抵上海黄浦江码头。",
      "phase": 1,
      "lng": 121.46917694072306,
      "lat": 31.23234226242273,
      "has_coords": true,
      "is_international": false
    },
    {
      "id": 166,
      "date": "1923-10-01",
      "date_num": 19231001,
      "year": 1923,
      "month": 10,
      "day": 1,
      "location": "北京市",
      "title": "陈毅进入温泉学院（即中法大学）文科班学习（北京市）",
      "description": "到北京香山碧云寺，进温泉学院（即中法大学）文科班读书。",
      "phase": 1,
      "lng": 116.40115774621196,
      "lat": 39.90279665683494,
      "has_coords": true,
      "is_international": false
    },
    {
      "id": 167,
      "date": "1923-11-01",
      "date_num": 19231101,
      "year": 1923,
      "month": 11,
      "day": 1,
      "location": "北京市",
      "title": "陈毅加入中国共产党（北京市）",
      "description": "经中法大学党支部负责人颜昌颐、萧振声介绍加入中国共产党。",
      "phase": 1,
      "lng": 116.40115774621196,
      "lat": 39.90279665683494,
      "has_coords": true,
      "is_international": false
    },
    {
      "id": 10,
      "date": "1925-04-01",
      "date_num": 19250401,
      "year": 1925,
      "month": 4,
      "day": 1,
      "location": "北京市",
      "title": "陈毅发起成立西山文社（北京市）",
      "description": "陈毅发起组织中法大学文学团体西山文社，并在《晨报》副刊《文学旬刊》上发表成立启事，向文坛表白了他们美好的愿望。",
      "phase": 2,
      "lng": 116.40115774621196,
      "lat": 39.90279665683494,
      "has_coords": true,
      "is_international": false
    },
    {
      "id": 168,
      "date": "1925-06-01",
      "date_num": 19250601,
      "year": 1925,
      "month": 6,
      "day": 1,
      "location": "北京市",
      "title": "陈毅参加“五卅惨案”游行示威（北京市）",
      "description": "“五卅”惨案的消息传到北京，陈毅和王斐然等步行进程参加游行示威，并在西郊组织讲演队，进行反帝宣传，为惨案中死伤的同胞募捐。",
      "phase": 2,
      "lng": 116.40115774621196,
      "lat": 39.90279665683494,
      "has_coords": true,
      "is_international": false
    },
    {
      "id": 169,
      "date": "1925-10-01",
      "date_num": 19251001,
      "year": 1925,
      "month": 10,
      "day": 1,
      "location": "北京市",
      "title": "陈毅参加北京地委工作（北京市）",
      "description": "根据中国共产党第四届中央执行委员会第二次扩大会议精神，中共北京地委与北京区委（后改为北方区委）分开，单独成立。陈毅参加了地委的工作，并根据党组织的决定，为加强国民革命运动，以共产党员身份加入国民党，担任国民党北京特别市党部执行委员、国民革命运动委员会负责人，并兼任北京学生总会的党团书记，但名义上仍保持着中法大学的学籍。",
      "phase": 2,
      "lng": 116.40115774621196,
      "lat": 39.90279665683494,
      "has_coords": true,
      "is_international": false
    },
    {
      "id": 170,
      "date": "1925-10-01",
      "date_num": 19251001,
      "year": 1925,
      "month": 10,
      "day": 1,
      "location": "北京市",
      "title": "陈毅担任国民党北京特别市党部执行委员（北京市）",
      "description": "根据中国共产党第四届中央执行委员会第二次扩大会议精神，中共北京地委与北京区委（后改为北方区委）分开，单独成立。陈毅参加了地委的工作，并根据党组织的决定，为加强国民革命运动，以共产党员身份加入国民党，担任国民党北京特别市党部执行委员、国民革命运动委员会负责人，并兼任北京学生总会的党团书记，但名义上仍保持着中法大学的学籍。",
      "phase": 2,
      "lng": 116.40115774621196,
      "lat": 39.90279665683494,
      "has_coords": true,
      "is_international": false
    },
    {
      "id": 171,
      "date": "1925-10-01",
      "date_num": 19251001,
      "year": 1925,
      "month": 10,
      "day": 1,
      "location": "北京市",
      "title": "陈毅担任国民革命运动委员会负责人（北京市）",
      "description": "根据中国共产党第四届中央执行委员会第二次扩大会议精神，中共北京地委与北京区委（后改为北方区委）分开，单独成立。陈毅参加了地委的工作，并根据党组织的决定，为加强国民革命运动，以共产党员身份加入国民党，担任国民党北京特别市党部执行委员、国民革命运动委员会负责人，并兼任北京学生总会的党团书记，但名义上仍保持着中法大学的学籍。",
      "phase": 2,
      "lng": 116.40115774621196,
      "lat": 39.90279665683494,
      "has_coords": true,
      "is_international": false
    },
    {
      "id": 172,
      "date": "1925-10-01",
      "date_num": 19251001,
      "year": 1925,
      "month": 10,
      "day": 1,
      "location": "北京市",
      "title": "陈毅兼任北京学生总会党团书记（北京市）",
      "description": "根据中国共产党第四届中央执行委员会第二次扩大会议精神，中共北京地委与北京区委（后改为北方区委）分开，单独成立。陈毅参加了地委的工作，并根据党组织的决定，为加强国民革命运动，以共产党员身份加入国民党，担任国民党北京特别市党部执行委员、国民革命运动委员会负责人，并兼任北京学生总会的党团书记，但名义上仍保持着中法大学的学籍。",
      "phase": 2,
      "lng": 116.40115774621196,
      "lat": 39.90279665683494,
      "has_coords": true,
      "is_international": false
    },
    {
      "id": 173,
      "date": "1926-01-21",
      "date_num": 19260121,
      "year": 1926,
      "month": 1,
      "day": 21,
      "location": "北京市",
      "title": "陈毅参加列宁逝世两周年纪念大会（北京市）",
      "description": "和李大钊参加北京各界600多人在北大三院大礼堂举行的列宁逝世两周年纪念大会，并在会上演讲。",
      "phase": 2,
      "lng": 116.40115774621196,
      "lat": 39.90279665683494,
      "has_coords": true,
      "is_international": false
    },
    {
      "id": 174,
      "date": "1926-03-18",
      "date_num": 19260318,
      "year": 1926,
      "month": 3,
      "day": 18,
      "location": "北京市",
      "title": "陈毅发动“反对八国通牒示威大会”（北京市）",
      "description": "上午10时，在陈毅等人的积极发动下，北京各界200多个团体约万余人在天安门前举行“反对八国通牒示威大会”。",
      "phase": 2,
      "lng": 116.40115774621196,
      "lat": 39.90279665683494,
      "has_coords": true,
      "is_international": false
    },
    {
      "id": 175,
      "date": "1926-12-15",
      "date_num": 19261215,
      "year": 1926,
      "month": 12,
      "day": 15,
      "location": "合川区",
      "title": "陈毅任川军第二十八军第三师政治部秘书（合川区）",
      "description": "经刘愿安推荐，前往合川县川军第二十八军第三师（称合三师）工作，被任命为该师政治部秘书。",
      "phase": 2,
      "lng": 106.27269215122611,
      "lat": 29.974543308606286,
      "has_coords": true,
      "is_international": false
    },
    {
      "id": 176,
      "date": "1927-08-02",
      "date_num": 19270802,
      "year": 1927,
      "month": 8,
      "day": 2,
      "location": "武汉市",
      "title": "陈毅随教导团沿长江“东下讨蒋”（武汉市）",
      "description": "陈毅奉中共中央军委的指示，随教导团2000余人，从武昌煤炭码头，乘坐由几艘小火轮拖着的若干木船，沿长江“东下讨蒋”。",
      "phase": 2,
      "lng": 114.29995522380862,
      "lat": 30.59550949143213,
      "has_coords": true,
      "is_international": false
    },
    {
      "id": 177,
      "date": "1927-08-13",
      "date_num": 19270813,
      "year": 1927,
      "month": 8,
      "day": 13,
      "location": "宜黄县",
      "title": "陈毅任第二十五师第七十三团指导员（宜黄县）",
      "description": "与萧劲在宜黄再次追上起义军。周恩来和军事参谋团诸同志商量后，分配陈毅任第二十五师第七十三团的团指导员。",
      "phase": 2,
      "lng": 116.23176332617976,
      "lat": 27.557536829573348,
      "has_coords": true,
      "is_international": false
    },
    {
      "id": 178,
      "date": "1928-03-16",
      "date_num": 19280316,
      "year": 1928,
      "month": 3,
      "day": 16,
      "location": "永兴县",
      "title": "陈毅出席湘南工农兵代表大会（永兴县）",
      "description": "出席中共湘南特委在永兴县城召开的湘南工农兵代表大会，成立湘南苏维埃政府，选举陈佑魁、朱德、陈毅、李才佳、尹子韶、宋乔生等21人为执行委员，陈佑魁为主席。会议作出了土地问题等决议。",
      "phase": 2,
      "lng": 113.1049863286852,
      "lat": 26.13405921257938,
      "has_coords": true,
      "is_international": false
    },
    {
      "id": 179,
      "date": "1928-03-16",
      "date_num": 19280316,
      "year": 1928,
      "month": 3,
      "day": 16,
      "location": "永兴县",
      "title": "陈毅任湘南苏维埃政府执行委员（永兴县）",
      "description": "出席中共湘南特委在永兴县城召开的湘南工农兵代表大会，成立湘南苏维埃政府，选举陈佑魁、朱德、陈毅、李才佳、尹子韶、宋乔生等21人为执行委员，陈佑魁为主席。会议作出了土地问题等决议。",
      "phase": 2,
      "lng": 113.1049863286852,
      "lat": 26.13405921257938,
      "has_coords": true,
      "is_international": false
    },
    {
      "id": 11,
      "date": "1928-04-01",
      "date_num": 19280401,
      "year": 1928,
      "month": 4,
      "day": 1,
      "location": "砻市镇",
      "title": "工农革命军第四军成立（砻市镇）",
      "description": "在宁冈砻市主持召开庆祝两军胜利会师大会。正式宣布成立工农革命军第四军（不久，按党中央规定，改称为红军第四军），朱德任军长，毛泽东任党代表，王尔琢任参谋长。下辖2个师和1个教导大队：第十师师长朱德兼，第十一师师长毛泽东代兼（本任张子清为师长，因他负伤），教导大队大队长陈毅。",
      "phase": 2,
      "lng": 114.09859013156009,
      "lat": 26.6702394669501,
      "has_coords": true,
      "is_international": false
    },
    {
      "id": 12,
      "date": "1928-04-01",
      "date_num": 19280401,
      "year": 1928,
      "month": 4,
      "day": 1,
      "location": "砻市镇",
      "title": "陈毅任第四军教导大队队长（砻市镇）",
      "description": "在宁冈砻市主持召开庆祝两军胜利会师大会。正式宣布成立工农革命军第四军（不久，按党中央规定，改称为红军第四军），朱德任军长，毛泽东任党代表，王尔琢任参谋长。下辖2个师和1个教导大队：第十师师长朱德兼，第十一师师长毛泽东代兼（本任张子清为师长，因他负伤），教导大队大队长陈毅。",
      "phase": 2,
      "lng": 114.09859013156009,
      "lat": 26.6702394669501,
      "has_coords": true,
      "is_international": false
    },
    {
      "id": 13,
      "date": "1928-04-01",
      "date_num": 19280401,
      "year": 1928,
      "month": 4,
      "day": 1,
      "location": "砻市镇",
      "title": "朱毛会师（砻市镇）",
      "description": "陈毅和朱德率领工农革命军第一师、湘南农军与毛泽东率领的工农革命军第一师在江西宁冈砻市胜利会师。",
      "phase": 2,
      "lng": 114.09859013156009,
      "lat": 26.6702394669501,
      "has_coords": true,
      "is_international": false
    },
    {
      "id": 180,
      "date": "1929-05-20",
      "date_num": 19290520,
      "year": 1929,
      "month": 5,
      "day": 20,
      "location": "宁冈县",
      "title": "陈毅出席中共湘赣边界第一次代表大会（宁冈县）",
      "description": "出席在宁冈县茅坪谢氏慎公祠召开的中共湘赣边界第一次代表大会。大会讨论并提出了发展党的组织、深入土地革命、巩团和扩大红军和革命根据地等任务。大会通过毛泽东所作的报告，并选举产生了中共湘赣边界第一届特别委员会，毛泽东为书记，陈毅为候补常委。随后，改选工农革命军第四军军委书记，由陈毅接任。",
      "phase": 2,
      "lng": 114.14567702194704,
      "lat": 26.7262893948378,
      "has_coords": true,
      "is_international": false
    },
    {
      "id": 181,
      "date": "1929-05-20",
      "date_num": 19290520,
      "year": 1929,
      "month": 5,
      "day": 20,
      "location": "宁冈县",
      "title": "陈毅任红四军军委书记（宁冈县）",
      "description": "出席在宁冈县茅坪谢氏慎公祠召开的中共湘赣边界第一次代表大会。大会讨论并提出了发展党的组织、深入土地革命、巩团和扩大红军和革命根据地等任务。大会通过毛泽东所作的报告，并选举产生了中共湘赣边界第一届特别委员会，毛泽东为书记，陈毅为候补常委。随后，改选工农革命军第四军军委书记，由陈毅接任。",
      "phase": 2,
      "lng": 114.14567702194704,
      "lat": 26.7262893948378,
      "has_coords": true,
      "is_international": false
    },
    {
      "id": 182,
      "date": "1929-06-22",
      "date_num": 19290622,
      "year": 1929,
      "month": 6,
      "day": 22,
      "location": "龙岩市",
      "title": "中共红四军第七次代表大会通过陈毅起草的《 红军第七次代表大会决议案》（龙岩市）",
      "description": "在龙岩城公民小学主持召开中共红四军第七次代表大会。会议就红四军党内长期存在的建军思想和建军原则的分歧进行了讨论,通过了由陈毅起草的《红军第七次代表大会决议案》。",
      "phase": 2,
      "lng": 117.01282363331848,
      "lat": 25.07855666778498,
      "has_coords": true,
      "is_international": false
    },
    {
      "id": 183,
      "date": "1929-06-22",
      "date_num": 19290622,
      "year": 1929,
      "month": 6,
      "day": 22,
      "location": "龙岩市",
      "title": "陈毅起草《红军第七次代表大会决议案》（龙岩市）",
      "description": "在龙岩城公民小学主持召开中共红四军第七次代表大会。会议就红四军党内长期存在的建军思想和建军原则的分歧进行了讨论,通过了由陈毅起草的《红军第七次代表大会决议案》。",
      "phase": 2,
      "lng": 117.01282363331848,
      "lat": 25.07855666778498,
      "has_coords": true,
      "is_international": false
    },
    {
      "id": 14,
      "date": "1929-08-01",
      "date_num": 19290801,
      "year": 1929,
      "month": 8,
      "day": 1,
      "location": "松源镇",
      "title": "朱德派陈毅赴蛟洋请毛泽东复职（松源镇）",
      "description": "按中央指示和前委决定，赴上海参加中央召开的军事会议及汇报红四军的情况。行前，专程到蛟洋征询毛泽东意见，并请毛复职，主持前委工作。由于种种原因，毛未如其愿。",
      "phase": 2,
      "lng": 115.91214527466829,
      "lat": 24.753040133239114,
      "has_coords": true,
      "is_international": false
    },
    {
      "id": 15,
      "date": "1929-08-01",
      "date_num": 19290801,
      "year": 1929,
      "month": 8,
      "day": 1,
      "location": "龙岩市",
      "title": "陈毅按中央指示赴上海参加军事会议（龙岩市）",
      "description": "按中央指示和前委决定，赴上海参加中央召开的军事会议及汇报红四军的情况。行前，专程到蛟洋征询毛泽东意见，并请毛复职，主持前委工作。由于种种原因，毛未如其愿。",
      "phase": 2,
      "lng": 117.01282363331848,
      "lat": 25.07855666778498,
      "has_coords": true,
      "is_international": false
    },
    {
      "id": 16,
      "date": "1929-08-01",
      "date_num": 19290801,
      "year": 1929,
      "month": 8,
      "day": 1,
      "location": "龙岩市",
      "title": "陈毅按中央指示赴上海汇报红四军情况（龙岩市）",
      "description": "按中央指示和前委决定，赴上海参加中央召开的军事会议及汇报红四军的情况。行前，专程到蛟洋征询毛泽东意见，并请毛复职，主持前委工作。由于种种原因，毛未如其愿。",
      "phase": 2,
      "lng": 117.01282363331848,
      "lat": 25.07855666778498,
      "has_coords": true,
      "is_international": false
    },
    {
      "id": 17,
      "date": "1929-09-01",
      "date_num": 19290901,
      "year": 1929,
      "month": 9,
      "day": 1,
      "location": "上海市",
      "title": "陈毅撰写《关于朱德、毛泽东红军的历史及其状况的报告》（上海市）",
      "description": "陈毅写完了中央所要求写的5个书面材料：《关于朱德、毛泽东红军的历史及其状况的报告》、《关于朱、毛红军的党务概况报告》、《关于朱、毛争论问题的报告》、《关于赣南、闽西、粤东江农运及党的发展情况的报告》和《前委对中央提出的意见——对全国军事运动的意见及四军本身的问题》。",
      "phase": 2,
      "lng": 121.46917694072306,
      "lat": 31.23234226242273,
      "has_coords": true,
      "is_international": false
    },
    {
      "id": 18,
      "date": "1929-09-01",
      "date_num": 19290901,
      "year": 1929,
      "month": 9,
      "day": 1,
      "location": "上海市",
      "title": "陈毅撰写《关于朱、毛红军的党务概况报告》（上海市）",
      "description": "陈毅写完了中央所要求写的5个书面材料：《关于朱德、毛泽东红军的历史及其状况的报告》、《关于朱、毛红军的党务概况报告》、《关于朱、毛争论问题的报告》、《关于赣南、闽西、粤东江农运及党的发展情况的报告》和《前委对中央提出的意见——对全国军事运动的意见及四军本身的问题》。",
      "phase": 2,
      "lng": 121.46917694072306,
      "lat": 31.23234226242273,
      "has_coords": true,
      "is_international": false
    },
    {
      "id": 19,
      "date": "1929-09-01",
      "date_num": 19290901,
      "year": 1929,
      "month": 9,
      "day": 1,
      "location": "上海市",
      "title": "陈毅撰写《关于朱、毛争论问题的报告》（上海市）",
      "description": "陈毅写完了中央所要求写的5个书面材料：《关于朱德、毛泽东红军的历史及其状况的报告》、《关于朱、毛红军的党务概况报告》、《关于朱、毛争论问题的报告》、《关于赣南、闽西、粤东江农运及党的发展情况的报告》和《前委对中央提出的意见——对全国军事运动的意见及四军本身的问题》。",
      "phase": 2,
      "lng": 121.46917694072306,
      "lat": 31.23234226242273,
      "has_coords": true,
      "is_international": false
    },
    {
      "id": 20,
      "date": "1929-09-01",
      "date_num": 19290901,
      "year": 1929,
      "month": 9,
      "day": 1,
      "location": "上海市",
      "title": "陈毅撰写《关于赣南、闽西、粤东江农运及党的发展情况的报告》（上海市）",
      "description": "陈毅写完了中央所要求写的5个书面材料：《关于朱德、毛泽东红军的历史及其状况的报告》、《关于朱、毛红军的党务概况报告》、《关于朱、毛争论问题的报告》、《关于赣南、闽西、粤东江农运及党的发展情况的报告》和《前委对中央提出的意见——对全国军事运动的意见及四军本身的问题》。",
      "phase": 2,
      "lng": 121.46917694072306,
      "lat": 31.23234226242273,
      "has_coords": true,
      "is_international": false
    },
    {
      "id": 21,
      "date": "1929-09-01",
      "date_num": 19290901,
      "year": 1929,
      "month": 9,
      "day": 1,
      "location": "上海市",
      "title": "陈毅撰写《前委对中央提出的意见——对全国军事运动的意见及四军本身的问题》（上海市）",
      "description": "陈毅写完了中央所要求写的5个书面材料：《关于朱德、毛泽东红军的历史及其状况的报告》、《关于朱、毛红军的党务概况报告》、《关于朱、毛争论问题的报告》、《关于赣南、闽西、粤东江农运及党的发展情况的报告》和《前委对中央提出的意见——对全国军事运动的意见及四军本身的问题》。",
      "phase": 2,
      "lng": 121.46917694072306,
      "lat": 31.23234226242273,
      "has_coords": true,
      "is_international": false
    },
    {
      "id": 22,
      "date": "1929-09-28",
      "date_num": 19290928,
      "year": 1929,
      "month": 9,
      "day": 28,
      "location": "上海市",
      "title": "中央政治局讨论通过陈毅起草的“九月来信”（上海市）",
      "description": "中央政治局讨论通过由三人委员会集体研究、陈毅起草、经周恩来审定的《中共中央给红军第四军前委的指示信》（即“九月来信”）。",
      "phase": 2,
      "lng": 121.46917694072306,
      "lat": 31.23234226242273,
      "has_coords": true,
      "is_international": false
    },
    {
      "id": 184,
      "date": "1929-12-28",
      "date_num": 19291228,
      "year": 1929,
      "month": 12,
      "day": 28,
      "location": "古田县",
      "title": "陈毅主持古田会议（古田县）",
      "description": "中共红四军第九次代表大会在福建上杭古田的溪背村曙光小学召开。大会由陈毅主持。会议改选了前委，选举毛泽东、朱德、陈毅、李任予、黄益善、罗荣桓、林彪、伍中豪、谭震林、宋裕和、田桂祥11人为前委正式委员，杨岳彬、熊寿祺、李长寿3人为候补委员，毛泽东为书记。",
      "phase": 2,
      "lng": 118.73983307618144,
      "lat": 26.580568308754163,
      "has_coords": true,
      "is_international": false
    },
    {
      "id": 185,
      "date": "1929-12-28",
      "date_num": 19291228,
      "year": 1929,
      "month": 12,
      "day": 28,
      "location": "古田县",
      "title": "陈毅任中共红四军前委委员（古田县）",
      "description": "中共红四军第九次代表大会在福建上杭古田的溪背村曙光小学召开。大会由陈毅主持。会议改选了前委，选举毛泽东、朱德、陈毅、李任予、黄益善、罗荣桓、林彪、伍中豪、谭震林、宋裕和、田桂祥11人为前委正式委员，杨岳彬、熊寿祺、李长寿3人为候补委员，毛泽东为书记。",
      "phase": 2,
      "lng": 118.73983307618144,
      "lat": 26.580568308754163,
      "has_coords": true,
      "is_international": false
    },
    {
      "id": 186,
      "date": "1930-02-01",
      "date_num": 19300201,
      "year": 1930,
      "month": 2,
      "day": 1,
      "location": "吉安市",
      "title": "陈毅任红六军政治委员兼军委书记（吉安市）",
      "description": "根据“二七会议”的决定，陈毅调任红六军政治委员兼军委书记。",
      "phase": 2,
      "lng": 114.98183683879355,
      "lat": 27.11497112443502,
      "has_coords": true,
      "is_international": false
    },
    {
      "id": 187,
      "date": "1930-06-01",
      "date_num": 19300601,
      "year": 1930,
      "month": 6,
      "day": 1,
      "location": "上杭县",
      "title": "陈毅出席南阳会议（上杭县）",
      "description": "出席在长汀县南阳乡(今属上杭)龙田书院召开的中共红四军前委和闽西特委联席会议(即“南阳会议”)。",
      "phase": 2,
      "lng": 116.41848356006017,
      "lat": 25.051842944090012,
      "has_coords": true,
      "is_international": false
    },
    {
      "id": 189,
      "date": "1930-10-01",
      "date_num": 19301001,
      "year": 1930,
      "month": 10,
      "day": 1,
      "location": "泰和县",
      "title": "陈毅与萧菊英结婚（泰和县）",
      "description": "陈毅率部途经泰和时与萧菊英结婚。",
      "phase": 2,
      "lng": 114.90203458596352,
      "lat": 26.804591030147296,
      "has_coords": true,
      "is_international": false
    },
    {
      "id": 188,
      "date": "1930-10-07",
      "date_num": 19301007,
      "year": 1930,
      "month": 10,
      "day": 7,
      "location": "吉安市",
      "title": "陈毅任江西省苏维埃政府委员（吉安市）",
      "description": "总前委在吉安召开万人庆祝大会，宣布成立江西省苏维埃政府，曾山为主席，方志敏、陈正人、毛泽东、朱德、彭德怀、陈毅等53人为委员。",
      "phase": 2,
      "lng": 114.98183683879355,
      "lat": 27.11497112443502,
      "has_coords": true,
      "is_international": false
    },
    {
      "id": 190,
      "date": "1931-11-01",
      "date_num": 19311101,
      "year": 1931,
      "month": 11,
      "day": 1,
      "location": "瑞金市",
      "title": "陈毅出席赣南会议（瑞金市）",
      "description": "出席在瑞金由中央代表团主持召开的中共中央苏区第一次代表大会(赣南会议)",
      "phase": 2,
      "lng": 116.02232717756819,
      "lat": 25.888165650076658,
      "has_coords": true,
      "is_international": false
    },
    {
      "id": 194,
      "date": "1931-11-01",
      "date_num": 19311101,
      "year": 1931,
      "month": 11,
      "day": 1,
      "location": "江西省",
      "title": "陈毅写诗悼念萧菊英（江西省）",
      "description": "妻子萧菊英为躲敌机，“不幸失足落井死”。陈毅为其送葬归来，独自一人，思绪万千，当晚写下《忆友》之诗。",
      "phase": 2,
      "lng": 115.88765476338618,
      "lat": 28.679768894556297,
      "has_coords": true,
      "is_international": false
    },
    {
      "id": 191,
      "date": "1931-11-07",
      "date_num": 19311107,
      "year": 1931,
      "month": 11,
      "day": 7,
      "location": "瑞金市",
      "title": "陈毅出席中华苏维埃第一次全国代表大会（瑞金市）",
      "description": "出席在瑞金叶坪召开的中华苏维埃第一次全国代表大会。选举产生了中华苏维埃共和国临时中央政府执行委员会,陈毅当选为中央执行委员。大会闭幕前，举行授旗、授章典礼，以表彰红军及其指战员在革命战争中所作出的贡献和功绩，陈毅获得大命授予的红星奖章1枚。",
      "phase": 2,
      "lng": 116.02232717756819,
      "lat": 25.888165650076658,
      "has_coords": true,
      "is_international": false
    },
    {
      "id": 192,
      "date": "1931-11-07",
      "date_num": 19311107,
      "year": 1931,
      "month": 11,
      "day": 7,
      "location": "瑞金市",
      "title": "陈毅任中华苏维埃共和国临时中央政府执行委员会中央执行委员（瑞金市）",
      "description": "出席在瑞金叶坪召开的中华苏维埃第一次全国代表大会。选举产生了中华苏维埃共和国临时中央政府执行委员会,陈毅当选为中央执行委员。大会闭幕前，举行授旗、授章典礼，以表彰红军及其指战员在革命战争中所作出的贡献和功绩，陈毅获得大命授予的红星奖章1枚。",
      "phase": 2,
      "lng": 116.02232717756819,
      "lat": 25.888165650076658,
      "has_coords": true,
      "is_international": false
    },
    {
      "id": 193,
      "date": "1931-11-07",
      "date_num": 19311107,
      "year": 1931,
      "month": 11,
      "day": 7,
      "location": "瑞金市",
      "title": "陈毅被授予红星奖章（瑞金市）",
      "description": "出席在瑞金叶坪召开的中华苏维埃第一次全国代表大会。选举产生了中华苏维埃共和国临时中央政府执行委员会,陈毅当选为中央执行委员。大会闭幕前，举行授旗、授章典礼，以表彰红军及其指战员在革命战争中所作出的贡献和功绩，陈毅获得大命授予的红星奖章1枚。",
      "phase": 2,
      "lng": 116.02232717756819,
      "lat": 25.888165650076658,
      "has_coords": true,
      "is_international": false
    },
    {
      "id": 23,
      "date": "1932-01-09",
      "date_num": 19320109,
      "year": 1932,
      "month": 1,
      "day": 9,
      "location": "江西省",
      "title": "陈毅任江西军区总指挥兼政治委员（江西省）",
      "description": "中革军委决定将江西省苏维埃政府军事部取消，成立江西军区总指挥部，以陈毅为总指挥兼政治委员。",
      "phase": 2,
      "lng": 115.88765476338618,
      "lat": 28.679768894556297,
      "has_coords": true,
      "is_international": false
    },
    {
      "id": 195,
      "date": "1932-10-08",
      "date_num": 19321008,
      "year": 1932,
      "month": 10,
      "day": 8,
      "location": "宁都县",
      "title": "陈毅与赖月明结婚（宁都县）",
      "description": "经李富春、蔡畅夫妇介绍，在宁都与赖月明结婚。",
      "phase": 2,
      "lng": 116.00872172782736,
      "lat": 26.475934941774867,
      "has_coords": true,
      "is_international": false
    },
    {
      "id": 196,
      "date": "1933-02-01",
      "date_num": 19330201,
      "year": 1933,
      "month": 2,
      "day": 1,
      "location": "江西省",
      "title": "陈毅兼任江西军区总指挥（江西省）",
      "description": "中央局经与陈毅、李富春、刘畴西等讨论之后，于是日作出《关于江西军区组织各战区划分之决定》，江西军区迁宁都兼东北战区，陈毅兼总指挥，李富春为政委，周子昆为参谋长，邓小平为政治部主任。",
      "phase": 2,
      "lng": 115.88765476338618,
      "lat": 28.679768894556297,
      "has_coords": true,
      "is_international": false
    },
    {
      "id": 197,
      "date": "1933-09-27",
      "date_num": 19330927,
      "year": 1933,
      "month": 9,
      "day": 27,
      "location": "宁都县",
      "title": "陈毅出席中共江西省苏区第二次代表大会（宁都县）",
      "description": "出席宁都七里坪村召开的中共江西省苏区第二次代表大会。在会上，陈毅当选大会主席团成员、省委执行委员、省委常委。",
      "phase": 2,
      "lng": 116.00872172782736,
      "lat": 26.475934941774867,
      "has_coords": true,
      "is_international": false
    },
    {
      "id": 198,
      "date": "1933-09-27",
      "date_num": 19330927,
      "year": 1933,
      "month": 9,
      "day": 27,
      "location": "宁都县",
      "title": "陈毅当选中共江西省苏区第二次代表大会主席团成员、省委执行委员、省委常委（宁都县）",
      "description": "出席宁都七里坪村召开的中共江西省苏区第二次代表大会。在会上，陈毅当选大会主席团成员、省委执行委员、省委常委。",
      "phase": 2,
      "lng": 116.00872172782736,
      "lat": 26.475934941774867,
      "has_coords": true,
      "is_international": false
    },
    {
      "id": 200,
      "date": "1933-12-21",
      "date_num": 19331221,
      "year": 1933,
      "month": 12,
      "day": 21,
      "location": "宁都县",
      "title": "陈毅出席江西省苏维埃第二次工农兵代表大会（宁都县）",
      "description": "出席在宁都七里坪村召开的江西省苏维埃第二次工农兵代表大会。在会上被选为第二届执行委员会主席团委员及江西省苏维埃执行委员。",
      "phase": 2,
      "lng": 116.00872172782736,
      "lat": 26.475934941774867,
      "has_coords": true,
      "is_international": false
    },
    {
      "id": 201,
      "date": "1933-12-21",
      "date_num": 19331221,
      "year": 1933,
      "month": 12,
      "day": 21,
      "location": "宁都县",
      "title": "陈毅当选为第二届工农兵代表大会执行委员会主席团委员及江西省苏维埃执行委员（宁都县）",
      "description": "出席在宁都七里坪村召开的江西省苏维埃第二次工农兵代表大会。在会上被选为第二届执行委员会主席团委员及江西省苏维埃执行委员。",
      "phase": 2,
      "lng": 116.00872172782736,
      "lat": 26.475934941774867,
      "has_coords": true,
      "is_international": false
    },
    {
      "id": 202,
      "date": "1934-01-22",
      "date_num": 19340122,
      "year": 1934,
      "month": 1,
      "day": 22,
      "location": "瑞金市",
      "title": "陈毅出席中华苏维埃第二次全国代表大会（瑞金市）",
      "description": "出席在瑞金沙洲坝召开的中华苏维埃第二次全国代表大会。会上，陈毅当选为中华苏维埃共和国第二届中央执行委员会委员，并被授予二等红星奖章。",
      "phase": 2,
      "lng": 116.02232717756819,
      "lat": 25.888165650076658,
      "has_coords": true,
      "is_international": false
    },
    {
      "id": 203,
      "date": "1934-01-22",
      "date_num": 19340122,
      "year": 1934,
      "month": 1,
      "day": 22,
      "location": "瑞金市",
      "title": "陈毅当选中华苏维埃共和国第二届中央执行委员会委员（瑞金市）",
      "description": "出席在瑞金沙洲坝召开的中华苏维埃第二次全国代表大会。会上，陈毅当选为中华苏维埃共和国第二届中央执行委员会委员，并被授予二等红星奖章。",
      "phase": 2,
      "lng": 116.02232717756819,
      "lat": 25.888165650076658,
      "has_coords": true,
      "is_international": false
    },
    {
      "id": 204,
      "date": "1934-01-22",
      "date_num": 19340122,
      "year": 1934,
      "month": 1,
      "day": 22,
      "location": "瑞金市",
      "title": "陈毅被授予红星奖章（瑞金市）",
      "description": "出席在瑞金沙洲坝召开的中华苏维埃第二次全国代表大会。会上，陈毅当选为中华苏维埃共和国第二届中央执行委员会委员，并被授予二等红星奖章。",
      "phase": 2,
      "lng": 116.02232717756819,
      "lat": 25.888165650076658,
      "has_coords": true,
      "is_international": false
    },
    {
      "id": 205,
      "date": "1934-08-28",
      "date_num": 19340828,
      "year": 1934,
      "month": 8,
      "day": 28,
      "location": "兴国县",
      "title": "陈毅被敌弹击中骨折（兴国县）",
      "description": "8月28日。在兴国老营盘隘口指挥战斗时，右胯骨被敌弹击中，造成粉碎性骨折。",
      "phase": 2,
      "lng": 115.35812612723689,
      "lat": 26.340577485487493,
      "has_coords": true,
      "is_international": false
    },
    {
      "id": 206,
      "date": "1934-08-29",
      "date_num": 19340829,
      "year": 1934,
      "month": 8,
      "day": 29,
      "location": "兴国县",
      "title": "陈毅到农家养伤（兴国县）",
      "description": "8月29日。被送到兴国县东村天官庙一农家养伤。",
      "phase": 2,
      "lng": 115.35812612723689,
      "lat": 26.340577485487493,
      "has_coords": true,
      "is_international": false
    },
    {
      "id": 207,
      "date": "1934-10-01",
      "date_num": 19341001,
      "year": 1934,
      "month": 10,
      "day": 1,
      "location": "瑞金市",
      "title": "陈毅任中华苏维埃中央政府办事处主任（瑞金市）",
      "description": "10月上旬。中共中央决定红一方面军主力和中央机关撤离后，在中央苏区成立以项英为书记的中国共产党中央分局（简称“中央分局”）和以陈毅为主任、梁柏台为副主任的中华苏维埃共和国中央政府办事处（简称“中央政府办事处”），领导留下的红二十四师及地方武装共1.6万余人坚持斗争。",
      "phase": 2,
      "lng": 116.02232717756819,
      "lat": 25.888165650076658,
      "has_coords": true,
      "is_international": false
    },
    {
      "id": 208,
      "date": "1934-12-01",
      "date_num": 19341201,
      "year": 1934,
      "month": 12,
      "day": 1,
      "location": "宽田乡",
      "title": "陈毅、项英决定成立赣粤边特委（宽田乡）",
      "description": "为加强赣粤边地区斗争的领导，项英、陈毅等决定成立中共信（丰）（南）康赣（县）（南）雄特别委员会（后改称赣粤边特委）。",
      "phase": 2,
      "lng": 115.44096981768801,
      "lat": 25.977969720838875,
      "has_coords": true,
      "is_international": false
    },
    {
      "id": 209,
      "date": "1934-12-01",
      "date_num": 19341201,
      "year": 1934,
      "month": 12,
      "day": 1,
      "location": "黄麟乡",
      "title": "陈毅与赖月明分别（黄麟乡）",
      "description": "年底。为适应开展游击战争的需要，动员妇女、小孩疏散转移，并动员自己的妻子赖月明带头回她的老家兴国县去做地下工作。从此夫妻俩一别，再未重逢。",
      "phase": 2,
      "lng": 116.05194593318605,
      "lat": 26.133662470161955,
      "has_coords": true,
      "is_international": false
    },
    {
      "id": 210,
      "date": "1935-02-28",
      "date_num": 19350228,
      "year": 1935,
      "month": 2,
      "day": 28,
      "location": "上坪村",
      "title": "陈毅表示坚决拥护遵义会议精神（上坪村）",
      "description": "中央书记处致电中央军区，传达遵义会议决议精神。项英、陈毅、贺昌等得知遵义会议精神后，表示坚决拥护。",
      "phase": 2,
      "lng": 116.49145821564257,
      "lat": 25.09700053497806,
      "has_coords": true,
      "is_international": false
    },
    {
      "id": 212,
      "date": "1935-03-01",
      "date_num": 19350301,
      "year": 1935,
      "month": 3,
      "day": 1,
      "location": "油山镇",
      "title": "陈毅同赣粤边游击队会合（油山镇）",
      "description": "到达粤赣边根据地油山，与李乐天、杨尚奎等会和。不久，赣南军区司令蔡会文，少共赣南省委书记陈丕显带领突围的余部300余人也来到油山。陈毅的得知赣南省委书记阮啸仙在突围时壮烈牺牲，又想到贺昌英勇殉国，心情万分悲痛，写下了《哭阮啸仙、贺昌同志》一诗篇。",
      "phase": 2,
      "lng": 114.16983430760031,
      "lat": 25.48607166817319,
      "has_coords": true,
      "is_international": false
    },
    {
      "id": 211,
      "date": "1935-03-09",
      "date_num": 19350309,
      "year": 1935,
      "month": 3,
      "day": 9,
      "location": "上坪村",
      "title": "项英、陈毅率部突围转移失败（上坪村）",
      "description": "项英、陈毅、贺昌率中央军区直属队及第二十四师七十团编4个大队最后一批突围，从于都南部的上坪，准备到福建长汀方向。……陈毅和项英直等到傍晚与党中央的电台联络上之后，接着埋掉电台（因突围携带不方便），烧毁密码（从此与党中央失去联络达3年之久），才率领剩下的两个大队出发。不久，遇敌袭击，部队被冲散。第二天早晨，部队集合后，和敌人周旋；到晚上，又遇敌人，突围不出，只得倒回上坪山区。",
      "phase": 2,
      "lng": 116.49145821564257,
      "lat": 25.09700053497806,
      "has_coords": true,
      "is_international": false
    },
    {
      "id": 215,
      "date": "1936-06-01",
      "date_num": 19360601,
      "year": 1936,
      "month": 6,
      "day": 1,
      "location": "南雄市",
      "title": "陈毅、项英发表《为“两广事变”告群众书》（南雄市）",
      "description": "发生“两广事变”。在大余、信丰。南雄等地“清剿”游击队的粤军突然撤走。陈毅和项英等正确地分析了以蒋介石为首的中央军阀与以李宗仁、白崇禧、陈济棠为代表的地方军阀之间的矛盾，并以赣粤边特委的名义，发表了《为“两广事变”告群众书》，提出“反对军阀战争，实行抗日战争，变军阀战争为抗日的革命战争”的口号，贴标语，散传单。与此同时，又集中分散的游击队，打击反动的保安团和地主武装，来扩大游击区，壮大游击队。",
      "phase": 2,
      "lng": 114.30737175047848,
      "lat": 25.12066560105425,
      "has_coords": true,
      "is_international": false
    },
    {
      "id": 216,
      "date": "1937-08-08",
      "date_num": 19370808,
      "year": 1937,
      "month": 8,
      "day": 8,
      "location": "南雄市",
      "title": "陈毅、项英等发表“八八宣言”（南雄市）",
      "description": "和项英等以中共赣粤边特委和红军游击队名义发表要求实行全国抗战，反对和平妥协，红军游击队愿与政府合作一致抗日的宣言（称八八宣言）。不久，又派出两名代表前往南雄县里东，与国民党驻军联系谈判事宜。",
      "phase": 2,
      "lng": 114.30737175047848,
      "lat": 25.12066560105425,
      "has_coords": true,
      "is_international": false
    },
    {
      "id": 217,
      "date": "1937-08-25",
      "date_num": 19370825,
      "year": 1937,
      "month": 8,
      "day": 25,
      "location": "南雄市",
      "title": "陈毅、项英等发表《告赣南民众书》（南雄市）",
      "description": "和项英等为让广大人民群众及时了解我党的政治主张，以中共赣粤边特委名义发表《告赣南民众书》，号召停止对国民党军队及地方团队的游击，团结抗日。",
      "phase": 2,
      "lng": 114.30737175047848,
      "lat": 25.12066560105425,
      "has_coords": true,
      "is_international": false
    },
    {
      "id": 220,
      "date": "1937-09-01",
      "date_num": 19370901,
      "year": 1937,
      "month": 9,
      "day": 1,
      "location": "大余县",
      "title": "陈毅作《闻八路军大捷》（大余县）",
      "description": "闻八路军一一五师9月25日在山西前线取得平型关首战歼灭日军1000余人的胜利，作《闻八路军大捷》一诗",
      "phase": 2,
      "lng": 114.35458329467089,
      "lat": 25.39878785843325,
      "has_coords": true,
      "is_international": false
    },
    {
      "id": 218,
      "date": "1937-09-08",
      "date_num": 19370908,
      "year": 1937,
      "month": 9,
      "day": 8,
      "location": "大余县",
      "title": "陈毅与鲁炯雯举行谈判（大余县）",
      "description": "以赣粤边特委和红军游击队全权代表的身份在大余池江圩与国民党大余县政府彭育英的代表鲁炯雯举行谈判，达成7项协议。",
      "phase": 2,
      "lng": 114.35458329467089,
      "lat": 25.39878785843325,
      "has_coords": true,
      "is_international": false
    },
    {
      "id": 219,
      "date": "1937-09-29",
      "date_num": 19370929,
      "year": 1937,
      "month": 9,
      "day": 29,
      "location": "南昌市",
      "title": "项英和陈毅公开发布《告南方游击队的公开信》（南昌市）",
      "description": "项英在南昌以中共中央分局名义发表《告南方游击队的公开信》",
      "phase": 2,
      "lng": 115.88735449320252,
      "lat": 28.679768774167453,
      "has_coords": true,
      "is_international": false
    },
    {
      "id": 221,
      "date": "1937-11-06",
      "date_num": 19371106,
      "year": 1937,
      "month": 11,
      "day": 6,
      "location": "延安市",
      "title": "陈毅任新四军政治部主任（延安市）",
      "description": "毛泽东电告博古：“决定新四军隶属八路军，编2师4旅8团，拟项副军长，陈毅政治部主任，周子昆参谋人，军暂住武汉，商昌、福州设办事处。”",
      "phase": 3,
      "lng": 109.48419612400271,
      "lat": 36.58520261227548,
      "has_coords": true,
      "is_international": false
    },
    {
      "id": 222,
      "date": "1937-12-09",
      "date_num": 19371209,
      "year": 1937,
      "month": 12,
      "day": 9,
      "location": "延安市",
      "title": "陈毅任中共中央革命军事委员会新四军分会副书记（延安市）",
      "description": "政治局会议又专门讨论南方红军和游击队改编等问题，确定成立中共中央东南分局和中共中央革命军事委员命新四军分会。党的东南分局主要做地方工作，以项英、曾山、陈毅、方方、涂振农为委员，项英任书记，曾山任副书记，军分命主要做新四军的工作，以项英、陈毅、张鼎丞、曾山、黄道为委员，项英任主席、陈毅任副主席（后改称军分命书记、副书记）。",
      "phase": 3,
      "lng": 109.48419612400271,
      "lat": 36.58520261227548,
      "has_coords": true,
      "is_international": false
    },
    {
      "id": 223,
      "date": "1937-12-09",
      "date_num": 19371209,
      "year": 1937,
      "month": 12,
      "day": 9,
      "location": "延安市",
      "title": "陈毅任中共中央东南分局委员（延安市）",
      "description": "政治局会议又专门讨论南方红军和游击队改编等问题，确定成立中共中央东南分局和中共中央革命军事委员命新四军分会。党的东南分局主要做地方工作，以项英、曾山、陈毅、方方、涂振农为委员，项英任书记，曾山任副书记，军分命主要做新四军的工作，以项英、陈毅、张鼎丞、曾山、黄道为委员，项英任主席、陈毅任副主席（后改称军分命书记、副书记）。",
      "phase": 3,
      "lng": 109.48419612400271,
      "lat": 36.58520261227548,
      "has_coords": true,
      "is_international": false
    },
    {
      "id": 225,
      "date": "1938-01-01",
      "date_num": 19380101,
      "year": 1938,
      "month": 1,
      "day": 1,
      "location": "南昌市",
      "title": "陈毅任东南分局委员、新四军分会副书记（南昌市）",
      "description": "中共中央东南分局（以下简称“东南分局”）和中共中央革命军事委员会新四军分会（以下简称“新四军军分会”）在南昌明德屯4号正式成立，项英任分局书记兼军分会书记，陈毅任分局委员、军分会副书记。",
      "phase": 3,
      "lng": 115.88735449320252,
      "lat": 28.679768774167453,
      "has_coords": true,
      "is_international": false
    },
    {
      "id": 224,
      "date": "1938-01-08",
      "date_num": 19380108,
      "year": 1938,
      "month": 1,
      "day": 8,
      "location": "",
      "title": "陈毅任新四军第一支队司令员",
      "description": "陈绍禹、周恩来、叶剑英电告毛泽东：一、何应钦核定新四军编制为一、二、三、四共四个游击支队，同意以陈毅、张鼎丞、张云逸、高敬亭分任一、二、三、四支队司令。",
      "phase": 3,
      "lng": null,
      "lat": null,
      "has_coords": false,
      "is_international": false
    },
    {
      "id": 226,
      "date": "1938-04-01",
      "date_num": 19380401,
      "year": 1938,
      "month": 4,
      "day": 1,
      "location": "岩寺镇",
      "title": "陈毅参加新四军第一次营以上干部大会（岩寺镇）",
      "description": "新四军在岩寺鲍家祠堂召开全军(除江北第四支队外)第一次营以上干部大会。会议由项英主持。陈毅代表东南分局、新四军军分会首先讲话，介绍全国抗战的基本形势,国共合作的进展情况，并对新四军的组建，尤其是对叶挺将军就任新四军军长表示祝贺，要求大家团结一致，在东南分局及军分会领导下，坚决执行中共中央的正确路线完成抗日救国大业。",
      "phase": 3,
      "lng": 118.15720660092713,
      "lat": 29.909780940746966,
      "has_coords": true,
      "is_international": false
    },
    {
      "id": 227,
      "date": "1938-05-28",
      "date_num": 19380528,
      "year": 1938,
      "month": 5,
      "day": 28,
      "location": "土塘村",
      "title": "陈毅作《新的战斗条件和新的战斗任务》的报告（土塘村）",
      "description": "率第一支队东进至南陵县土塘。是日，召开支队干部会议，作《新的战斗条件和新的战斗任务》的报告。针对江南的地形、社会特点和面对着新的敌人，要求部队运用夜战、伏击战、白刃格斗等战术制胜敌人。",
      "phase": 3,
      "lng": 116.46750148069924,
      "lat": 24.83606538352278,
      "has_coords": true,
      "is_international": false
    },
    {
      "id": 228,
      "date": "1938-06-07",
      "date_num": 19380607,
      "year": 1938,
      "month": 6,
      "day": 7,
      "location": "",
      "title": "陈毅任新四军委员会委员",
      "description": "毛泽东、洛甫6月9日复电同意组织新四军委员会，以项英、叶挺、陈毅、张云逸、周子昆、袁国平为委员，项英为主任，叶挺为副主任。",
      "phase": 3,
      "lng": null,
      "lat": null,
      "has_coords": false,
      "is_international": false
    },
    {
      "id": 229,
      "date": "1938-08-22",
      "date_num": 19380822,
      "year": 1938,
      "month": 8,
      "day": 22,
      "location": "江苏省",
      "title": "陈毅指挥新四军击败日军对小丹阳地区的“扫荡”（江苏省）",
      "description": "日军调集4500余人，并配有飞机、坦克、大炮，由秣陵关、溧水、当涂、采石、江宁等地，兵分8路，水陆并进，企图“扫荡”小丹阳地区，消灭第二支队，摧毁初创之抗日根据地。陈毅指示第一支队动员广大群众和地方武装对京杭、京沪、句丹等公路开展破袭战，并派出精干小分队袭击南京近郊麒麟门，以钳制敌人，策应第二支队反围攻作战。第二支队在第一支队积极配合下不到3天便粉碎了敌人的“扫荡”。",
      "phase": 3,
      "lng": 118.76218148733005,
      "lat": 32.04353884397003,
      "has_coords": true,
      "is_international": false
    },
    {
      "id": 230,
      "date": "1938-09-01",
      "date_num": 19380901,
      "year": 1938,
      "month": 9,
      "day": 1,
      "location": "",
      "title": "陈毅撰毕《坚持江南抗战的诸问题》",
      "description": "9月。撰毕《坚持江南抗战的诸问题》一文，主要内容如下∶一、坚持江南抗战的意义;二、日寇统治江南政策的分析;三、日寇的弱点及其在江南战略战术上的演出;四、江南抗战的战略战术问题;五、巩固与扩大地方武装;六、土匪问题。该文指出∶坚持江南抗战不仅给日寇以致命的打击，大大提高全国抗战的信心，还与全世界反日援华运动的深入开展息息相关。术文在分析了江南敌我双方政治、军事的基础上，提高了江南抗战的战略战术及其具体的方针 、政策，对江南抗战有重要指导意义。",
      "phase": 3,
      "lng": null,
      "lat": null,
      "has_coords": false,
      "is_international": false
    },
    {
      "id": 231,
      "date": "1938-10-01",
      "date_num": 19381001,
      "year": 1938,
      "month": 10,
      "day": 1,
      "location": "",
      "title": "陈毅签署《陆军新编第四军第一支队司令部政治部布告》",
      "description": "与支队副副司令员傅秋涛、政治部主任刘炎联名签署《陆军新编第四军第一支队司令部政治部布告》,宣布减租减息9条办法。",
      "phase": 3,
      "lng": null,
      "lat": null,
      "has_coords": false,
      "is_international": false
    },
    {
      "id": 232,
      "date": "1939-01-01",
      "date_num": 19390101,
      "year": 1939,
      "month": 1,
      "day": 1,
      "location": "",
      "title": "陈毅作《论茅山战局》",
      "description": "作《论茅山战局》一文，总结东进6个月来的经验。",
      "phase": 3,
      "lng": null,
      "lat": null,
      "has_coords": false,
      "is_international": false
    },
    {
      "id": 233,
      "date": "1939-02-07",
      "date_num": 19390207,
      "year": 1939,
      "month": 2,
      "day": 7,
      "location": "泾县云岭",
      "title": "陈毅出席新四军第二次政治工作会议（泾县云岭）",
      "description": "新四军政治部在皖南云岭召开全军第二次政治工作会议，根据会议讨论制订了《新四军政治工作组织纲要草案》。项英、陈毅、袁国平出席了会议并作了讲话。",
      "phase": 3,
      "lng": 118.2800933710554,
      "lat": 30.697637738940205,
      "has_coords": true,
      "is_international": false
    },
    {
      "id": 26,
      "date": "1939-02-23",
      "date_num": 19390223,
      "year": 1939,
      "month": 2,
      "day": 23,
      "location": "泾县云岭",
      "title": "陈毅和项英等迎接周恩来传达中共六届六中全会精神（泾县云岭）",
      "description": "陈毅和项英等在新四军军部驻地泾县云岭附近的章家渡迎接中共中央副主席、中共中央南方局书记周恩来到新四军军部视察工作和传达中共中央指示精神。",
      "phase": 3,
      "lng": 118.2800933710554,
      "lat": 30.697637738940205,
      "has_coords": true,
      "is_international": false
    },
    {
      "id": 27,
      "date": "1939-03-01",
      "date_num": 19390301,
      "year": 1939,
      "month": 3,
      "day": 1,
      "location": "泾县云岭",
      "title": "陈毅创作《十年》（泾县云岭）",
      "description": "不久，陈毅即拟成新四军军歌初稿，歌词热情歌颂新四军继承着北伐第四军、红军第四军和坚持南方游击战争的红色游击队前后十余年的光荣传统，为取其整数，故名《十年》。",
      "phase": 3,
      "lng": 118.2800933710554,
      "lat": 30.697637738940205,
      "has_coords": true,
      "is_international": false
    },
    {
      "id": 28,
      "date": "1939-03-01",
      "date_num": 19390301,
      "year": 1939,
      "month": 3,
      "day": 1,
      "location": "泾县云岭",
      "title": "陈毅初识张茜（泾县云岭）",
      "description": "在陈家祠堂看军部战地服务团演出《一年间》，张茜扮演剧中新娘子。这剧中的新娘子红装素裹，举止端庄，柔姿盈盈，风采动人，给陈毅留下了难忘的印象。",
      "phase": 3,
      "lng": 118.2800933710554,
      "lat": 30.697637738940205,
      "has_coords": true,
      "is_international": false
    },
    {
      "id": 29,
      "date": "1939-03-02",
      "date_num": 19390302,
      "year": 1939,
      "month": 3,
      "day": 2,
      "location": "泾县云岭",
      "title": "陈毅为张茜写诗（泾县云岭）",
      "description": "从张茜处索得照片一张。给张茜写信，信中附诗一首：春光照眼意如痴，愧我江南统锐师。豪情廿载今何在？输与红芳不自知。",
      "phase": 3,
      "lng": 118.2800933710554,
      "lat": 30.697637738940205,
      "has_coords": true,
      "is_international": false
    },
    {
      "id": 234,
      "date": "1939-11-07",
      "date_num": 19391107,
      "year": 1939,
      "month": 11,
      "day": 7,
      "location": "水西村",
      "title": "陈毅任新四军江南指挥部指挥（水西村）",
      "description": "新四军江南指挥部在溧阳县水西村成立。江南指挥部由新四军第一、二支队的领导机构合并而成，陈毅任指挥，粟裕任副指挥，罗忠毅任参谋长，刘炎任政治部主任，钟期光任政治部副主任，统一领导第一支队、第二支队、挺进纵队、“江抗”及苏南地方武装。陈、粟以江南指挥部正、副指挥名义发表讲话。",
      "phase": 3,
      "lng": 119.01641163107337,
      "lat": 31.615797942755105,
      "has_coords": true,
      "is_international": false
    },
    {
      "id": 235,
      "date": "1939-12-19",
      "date_num": 19391219,
      "year": 1939,
      "month": 12,
      "day": 19,
      "location": "金坛区",
      "title": "陈毅参加中共苏皖区第一次代表大会（金坛区）",
      "description": "中共苏皖区第一次代表大会在金坛县建昌圩召开。会议由曾山主持，陈毅作政治报告，吴仲超代表苏南特委作工作报告。",
      "phase": 3,
      "lng": 119.57297039186558,
      "lat": 31.749037575554773,
      "has_coords": true,
      "is_international": false
    },
    {
      "id": 236,
      "date": "1939-12-19",
      "date_num": 19391219,
      "year": 1939,
      "month": 12,
      "day": 19,
      "location": "金坛区",
      "title": "陈毅作政治报告（金坛区）",
      "description": "中共苏皖区第一次代表大会在金坛县建昌圩召开。会议由曾山主持，陈毅作政治报告，吴仲超代表苏南特委作工作报告。",
      "phase": 3,
      "lng": 119.57297039186558,
      "lat": 31.749037575554773,
      "has_coords": true,
      "is_international": false
    },
    {
      "id": 30,
      "date": "1940-01-28",
      "date_num": 19400128,
      "year": 1940,
      "month": 1,
      "day": 28,
      "location": "竹箦镇",
      "title": "陈毅与张茜结婚（竹箦镇）",
      "description": "与张茜在江苏溧阳水西村江南指挥部结婚。",
      "phase": 3,
      "lng": 119.40189032517495,
      "lat": 31.615671719242417,
      "has_coords": true,
      "is_international": false
    },
    {
      "id": 31,
      "date": "1940-01-28",
      "date_num": 19400128,
      "year": 1940,
      "month": 1,
      "day": 28,
      "location": "竹箦镇",
      "title": "陈毅创作《佳期》（竹箦镇）",
      "description": "随后作《佳期》诗一首：烛影摇红喜可知，催妆为赋小乔诗。同心能偿浑疑梦，注目相看不语时。一笑艰难成往事，共盟奋勉记佳期。百年一吻叮咛后，明月来窥夜正迟。",
      "phase": 3,
      "lng": 119.40189032517495,
      "lat": 31.615671719242417,
      "has_coords": true,
      "is_international": false
    },
    {
      "id": 237,
      "date": "1940-03-31",
      "date_num": 19400331,
      "year": 1940,
      "month": 3,
      "day": 31,
      "location": "",
      "title": "陈毅与叶挺等联名发表声讨汪精卫的通电",
      "description": "与叶挺等新四军诸将领联名发表声讨汪精卫的通电。",
      "phase": 3,
      "lng": null,
      "lat": null,
      "has_coords": false,
      "is_international": false
    },
    {
      "id": 238,
      "date": "1940-07-01",
      "date_num": 19400701,
      "year": 1940,
      "month": 7,
      "day": 1,
      "location": "江苏省",
      "title": "陈毅任新四军苏北指挥部指挥兼政委（江苏省）",
      "description": "经请示中共中央，将江南指挥部改为苏北指挥部，陈毅任指挥兼政委，粟裕任副指挥，刘炎、钟期光分任政治部正副主任。",
      "phase": 3,
      "lng": 118.76218148733005,
      "lat": 32.04353884397003,
      "has_coords": true,
      "is_international": false
    },
    {
      "id": 239,
      "date": "1940-08-20",
      "date_num": 19400820,
      "year": 1940,
      "month": 8,
      "day": 20,
      "location": "",
      "title": "陈毅和粟裕等下达《对于创建黄桥大根据地的指示》",
      "description": "为抓紧时间做好反磨擦、反“扫荡”的准备，和粟裕等以新四军苏北指挥部军分会名义下达《对于创建黄桥大根据地的指示》，指出目前的工作任务是:“积极充实主力，严格整训部队，努力民众运动，建立民主政权工作的基础，随时准备迎接反扫荡、反磨擦的胜利。”",
      "phase": 3,
      "lng": null,
      "lat": null,
      "has_coords": false,
      "is_international": false
    },
    {
      "id": 241,
      "date": "1940-09-01",
      "date_num": 19400901,
      "year": 1940,
      "month": 9,
      "day": 1,
      "location": "黄桥镇",
      "title": "陈毅任中共苏北区委员会书记（黄桥镇）",
      "description": "根据刘少奇5月指示精神，为统一党的领导，中共苏北区委员会在黄桥成立，陈毅兼任书记，陈丕显任副书记兼组织部长，委员有陈毅、粟裕、刘炎、陈丕显、刘先胜、叶飞、韦一平、吴仲超、陈光。",
      "phase": 3,
      "lng": 120.14240671162744,
      "lat": 32.29401194147378,
      "has_coords": true,
      "is_international": false
    },
    {
      "id": 240,
      "date": "1940-09-04",
      "date_num": 19400904,
      "year": 1940,
      "month": 9,
      "day": 4,
      "location": "黄桥镇",
      "title": "陈毅指挥新四军主动放弃黄桥（黄桥镇）",
      "description": "陈毅为顾全大局，避免内斗，中午令新四军放弃黄桥及其以北各阵地。",
      "phase": 3,
      "lng": 120.14240671162744,
      "lat": 32.29401194147378,
      "has_coords": true,
      "is_international": false
    },
    {
      "id": 242,
      "date": "1940-09-30",
      "date_num": 19400930,
      "year": 1940,
      "month": 9,
      "day": 30,
      "location": "姜堰区",
      "title": "陈毅指挥新四军主动放弃姜堰（姜堰区）",
      "description": "为顾全大局，以促省韩觉悟，陈毅决定执行诺言，坚决退出姜堰，使苏北民众深为感动。",
      "phase": 3,
      "lng": 120.14790265595846,
      "lat": 32.51060441289903,
      "has_coords": true,
      "is_international": false
    },
    {
      "id": 243,
      "date": "1940-10-04",
      "date_num": 19401004,
      "year": 1940,
      "month": 10,
      "day": 4,
      "location": "黄桥镇",
      "title": "陈毅和粟裕领导新四军击退国民党韩德勤部对黄桥的首次攻击（黄桥镇）",
      "description": "顽军先头部队第八十九军第三十三师经分界逼近黄桥以东前沿阵地，并于8时开始向黄桥发起首次攻击。陈毅和粟裕等命守城的第三纵队予以坚决阻击，其他部队在原地待命。第三纵队在阻击时，适巧新四军江南前来增援之1营兵力(老四团第三营)赶到，士气大振。战至下午1时，即挫败顽军第三十三师的首次攻击。",
      "phase": 3,
      "lng": 120.14240671162744,
      "lat": 32.29401194147378,
      "has_coords": true,
      "is_international": false
    },
    {
      "id": 244,
      "date": "1940-10-04",
      "date_num": 19401004,
      "year": 1940,
      "month": 10,
      "day": 4,
      "location": "黄桥镇",
      "title": "陈毅和粟裕领导新四军击退国民党韩德勤部对黄桥的首次攻击（黄桥镇）",
      "description": "顽军先头部队第八十九军第三十三师经分界逼近黄桥以东前沿阵地，并于8时开始向黄桥发起首次攻击。陈毅和粟裕等命守城的第三纵队予以坚决阻击，其他部队在原地待命。第三纵队在阻击时，适巧新四军江南前来增援之1营兵力(老四团第三营)赶到，士气大振。战至下午1时，即挫败顽军第三十三师的首次攻击。",
      "phase": 3,
      "lng": 120.14240671162744,
      "lat": 32.29401194147378,
      "has_coords": true,
      "is_international": false
    },
    {
      "id": 245,
      "date": "1940-10-05",
      "date_num": 19401005,
      "year": 1940,
      "month": 10,
      "day": 5,
      "location": "黄桥镇",
      "title": "陈毅领导新四军向国民党韩德勤部发起猛攻（黄桥镇）",
      "description": "凌晨起向顽军发起猛攻，经一日激战，先后歼灭顽第三十三师、第八十九军军部及第三四九旅等部大部。",
      "phase": 3,
      "lng": 120.14240671162744,
      "lat": 32.29401194147378,
      "has_coords": true,
      "is_international": false
    },
    {
      "id": 246,
      "date": "1940-10-05",
      "date_num": 19401005,
      "year": 1940,
      "month": 10,
      "day": 5,
      "location": "黄桥镇",
      "title": "陈毅领导新四军向国民党韩德勤部发起猛攻（黄桥镇）",
      "description": "凌晨起向顽军发起猛攻，经一日激战，先后歼灭顽第三十三师、第八十九军军部及第三四九旅等部大部。",
      "phase": 3,
      "lng": 120.14240671162744,
      "lat": 32.29401194147378,
      "has_coords": true,
      "is_international": false
    },
    {
      "id": 247,
      "date": "1940-10-10",
      "date_num": 19401010,
      "year": 1940,
      "month": 10,
      "day": 10,
      "location": "黄桥镇",
      "title": "陈毅和粟裕领导新四军取得黄桥战役的胜利（黄桥镇）",
      "description": "和粟裕指挥部队攻占东台，韩德勤率残部1000余人向兴化溃逃，至此，黄桥战役胜利结束。",
      "phase": 3,
      "lng": 120.14240671162744,
      "lat": 32.29401194147378,
      "has_coords": true,
      "is_international": false
    },
    {
      "id": 249,
      "date": "1940-10-28",
      "date_num": 19401028,
      "year": 1940,
      "month": 10,
      "day": 28,
      "location": "",
      "title": "陈毅向中共中央发送《关于苏北统战工作的经过与主要经验》电报",
      "description": "向中共中央发去《关于苏北统战工作的经过与主要经验》的长篇电报报告，系统汇报了自1939年初挺进纵队北渡长江开始，与二李等中间势力合作与斗争的整个过程。",
      "phase": 3,
      "lng": null,
      "lat": null,
      "has_coords": false,
      "is_international": false
    },
    {
      "id": 250,
      "date": "1940-10-31",
      "date_num": 19401031,
      "year": 1940,
      "month": 10,
      "day": 31,
      "location": "曲塘镇",
      "title": "陈毅出席苏北抗敌和平会议（曲塘镇）",
      "description": "为等韩、李来开会，苏北抗敌和平会议(又称第二次和平会议)延至是日举行，参加会议者30余人。",
      "phase": 3,
      "lng": 120.35492237531811,
      "lat": 32.60745279940787,
      "has_coords": true,
      "is_international": false
    },
    {
      "id": 251,
      "date": "1940-11-15",
      "date_num": 19401115,
      "year": 1940,
      "month": 11,
      "day": 15,
      "location": "海安市",
      "title": "陈毅出席苏北临时参议会（海安市）",
      "description": "苏北临时参议会在海安召开，出席代表388人(其中知识分子、绅商领袖占半数以上，中共党员72人，仅占百分之二十弱)江都、高邮、泰县、扬中、丹阳、泰兴、靖江、如皋、南通、海门、崇明、东台、盐城、兴化等14个县均有代表参加。",
      "phase": 3,
      "lng": 120.45402223604377,
      "lat": 32.547904626317376,
      "has_coords": true,
      "is_international": false
    },
    {
      "id": 252,
      "date": "1940-11-17",
      "date_num": 19401117,
      "year": 1940,
      "month": 11,
      "day": 17,
      "location": "海安市",
      "title": "华中总指挥部成立（海安市）",
      "description": "华中新四军、八路军总指挥部(简称华中总指挥部)在海安成立，并举行成立大会。参加大会的有新四军、八路军在华中的党政军领导及指战员700余人。会上，刘少奇宣读了中共中央关于成立华中总指挥部的决定，宣布叶挺任总指挥，陈毅任副总指挥(叶挺未到任前由陈毅代理总指挥)，刘少奇任政委，赖传珠任参谋长(正式公布为11月25日)，统一指挥华中地区人路军、新四军部队。陈毅在会上作《关于当前形势及华中我军任务的报告》。",
      "phase": 3,
      "lng": 120.45402223604377,
      "lat": 32.547904626317376,
      "has_coords": true,
      "is_international": false
    },
    {
      "id": 253,
      "date": "1940-11-17",
      "date_num": 19401117,
      "year": 1940,
      "month": 11,
      "day": 17,
      "location": "海安市",
      "title": "陈毅参加华中总指挥部成立大会（海安市）",
      "description": "华中新四军、八路军总指挥部(简称华中总指挥部)在海安成立，并举行成立大会。参加大会的有新四军、八路军在华中的党政军领导及指战员700余人。会上，刘少奇宣读了中共中央关于成立华中总指挥部的决定，宣布叶挺任总指挥，陈毅任副总指挥(叶挺未到任前由陈毅代理总指挥)，刘少奇任政委，赖传珠任参谋长(正式公布为11月25日)，统一指挥华中地区人路军、新四军部队。陈毅在会上作《关于当前形势及华中我军任务的报告》。",
      "phase": 3,
      "lng": 120.45402223604377,
      "lat": 32.547904626317376,
      "has_coords": true,
      "is_international": false
    },
    {
      "id": 254,
      "date": "1940-11-17",
      "date_num": 19401117,
      "year": 1940,
      "month": 11,
      "day": 17,
      "location": "海安市",
      "title": "陈毅任华中总指挥部副总指挥（海安市）",
      "description": "华中新四军、八路军总指挥部(简称华中总指挥部)在海安成立，并举行成立大会。参加大会的有新四军、八路军在华中的党政军领导及指战员700余人。会上，刘少奇宣读了中共中央关于成立华中总指挥部的决定，宣布叶挺任总指挥，陈毅任副总指挥(叶挺未到任前由陈毅代理总指挥)，刘少奇任政委，赖传珠任参谋长(正式公布为11月25日)，统一指挥华中地区人路军、新四军部队。陈毅在会上作《关于当前形势及华中我军任务的报告》。",
      "phase": 3,
      "lng": 120.45402223604377,
      "lat": 32.547904626317376,
      "has_coords": true,
      "is_international": false
    },
    {
      "id": 255,
      "date": "1940-11-17",
      "date_num": 19401117,
      "year": 1940,
      "month": 11,
      "day": 17,
      "location": "海安市",
      "title": "陈毅作《关于当前形势及华中我军任务的报告》（海安市）",
      "description": "华中新四军、八路军总指挥部(简称华中总指挥部)在海安成立，并举行成立大会。参加大会的有新四军、八路军在华中的党政军领导及指战员700余人。会上，刘少奇宣读了中共中央关于成立华中总指挥部的决定，宣布叶挺任总指挥，陈毅任副总指挥(叶挺未到任前由陈毅代理总指挥)，刘少奇任政委，赖传珠任参谋长(正式公布为11月25日)，统一指挥华中地区人路军、新四军部队。陈毅在会上作《关于当前形势及华中我军任务的报告》。",
      "phase": 3,
      "lng": 120.45402223604377,
      "lat": 32.547904626317376,
      "has_coords": true,
      "is_international": false
    },
    {
      "id": 256,
      "date": "1940-11-23",
      "date_num": 19401123,
      "year": 1940,
      "month": 11,
      "day": 23,
      "location": "盐城市",
      "title": "陈毅与刘少奇率华中总指挥部前往盐城（盐城市）",
      "description": "深夜，与刘少奇率华中总指挥部机关离开海安，于次日午后到达盐城文庙，与中原局一起在盐城办公。",
      "phase": 3,
      "lng": 120.15655068913672,
      "lat": 33.34873496836566,
      "has_coords": true,
      "is_international": false
    },
    {
      "id": 257,
      "date": "1940-11-29",
      "date_num": 19401129,
      "year": 1940,
      "month": 11,
      "day": 29,
      "location": "盐城市",
      "title": "陈毅与刘少奇下达攻击令（盐城市）",
      "description": "与刘少奇正式发起攻击令:“兹定明天(30日)拂晓不论天气如何，进行总攻击。各兵团首长按26日指示各向攻击目标前进，务期达成任务，不得延误。至要。”",
      "phase": 3,
      "lng": 120.15655068913672,
      "lat": 33.34873496836566,
      "has_coords": true,
      "is_international": false
    },
    {
      "id": 258,
      "date": "1940-12-02",
      "date_num": 19401202,
      "year": 1940,
      "month": 12,
      "day": 2,
      "location": "盐城市",
      "title": "陈毅出席中原局机关报《江淮日报》创刊会（盐城市）",
      "description": "与刘少奇、曹荻秋、刘瑞龙等参加中原局机关报《江淮日报》社成立暨该报创刊会。陈毅为该刊写了发刊词。",
      "phase": 3,
      "lng": 120.15655068913672,
      "lat": 33.34873496836566,
      "has_coords": true,
      "is_international": false
    },
    {
      "id": 259,
      "date": "1940-12-02",
      "date_num": 19401202,
      "year": 1940,
      "month": 12,
      "day": 2,
      "location": "盐城市",
      "title": "陈毅为中原局机关报《江淮日报》撰写发刊词（盐城市）",
      "description": "与刘少奇、曹荻秋、刘瑞龙等参加中原局机关报《江淮日报》社成立暨该报创刊会。陈毅为该刊写了发刊词。",
      "phase": 3,
      "lng": 120.15655068913672,
      "lat": 33.34873496836566,
      "has_coords": true,
      "is_international": false
    },
    {
      "id": 260,
      "date": "1940-12-13",
      "date_num": 19401213,
      "year": 1940,
      "month": 12,
      "day": 13,
      "location": "曹甸镇",
      "title": "陈毅和粟裕等指挥新四军对韩德勤部发起总攻（曹甸镇）",
      "description": "和粟裕、黄克诚等指挥新四军苏北指挥部第一、第二纵队及八路军第五纵队第一支队对韩德勤的主力所在地曹甸发起总攻。",
      "phase": 3,
      "lng": 119.68737742443315,
      "lat": 33.08399028852291,
      "has_coords": true,
      "is_international": false
    },
    {
      "id": 261,
      "date": "1940-12-13",
      "date_num": 19401213,
      "year": 1940,
      "month": 12,
      "day": 13,
      "location": "曹甸镇",
      "title": "陈毅和粟裕等指挥新四军对韩德勤部发起总攻（曹甸镇）",
      "description": "和粟裕、黄克诚等指挥新四军苏北指挥部第一、第二纵队及八路军第五纵队第一支队对韩德勤的主力所在地曹甸发起总攻。",
      "phase": 3,
      "lng": 119.68737742443315,
      "lat": 33.08399028852291,
      "has_coords": true,
      "is_international": false
    },
    {
      "id": 262,
      "date": "1941-01-01",
      "date_num": 19410101,
      "year": 1941,
      "month": 1,
      "day": 1,
      "location": "盐城市",
      "title": "陈毅参加盐城县参议会成立大会开幕式（盐城市）",
      "description": "与刘少奇等参加盐城县参议会成立大会开幕式，并在会上作重要讲话，强调成立参议会的目的和任务，就是要打倒日本帝国主义，建设新中国。",
      "phase": 3,
      "lng": 120.15655068913672,
      "lat": 33.34873496836566,
      "has_coords": true,
      "is_international": false
    },
    {
      "id": 263,
      "date": "1941-01-12",
      "date_num": 19410112,
      "year": 1941,
      "month": 1,
      "day": 12,
      "location": "盐城市",
      "title": "陈毅和刘少奇等召开新四军军分会会议（盐城市）",
      "description": "早晨，和刘少奇等开新四军军分会会议，商量对皖南军部的救援之策。",
      "phase": 3,
      "lng": 120.15655068913672,
      "lat": 33.34873496836566,
      "has_coords": true,
      "is_international": false
    },
    {
      "id": 264,
      "date": "1941-01-14",
      "date_num": 19410114,
      "year": 1941,
      "month": 1,
      "day": 14,
      "location": "盐城市",
      "title": "陈毅与同僚联名致电蒋介石（盐城市）",
      "description": "与张鼎丞、张云逸、戴季英、罗炳辉、彭雪枫、谭希林、李先念等支队、纵队司令员联名致电蒋介石，抗议围歼皖南新四军，要求立即电顾祝同，解除叶、项军长重围，严惩祸首，保障新四军全部安全。",
      "phase": 3,
      "lng": 120.15655068913672,
      "lat": 33.34873496836566,
      "has_coords": true,
      "is_international": false
    },
    {
      "id": 265,
      "date": "1941-01-20",
      "date_num": 19410120,
      "year": 1941,
      "month": 1,
      "day": 20,
      "location": "盐城市",
      "title": "中共中央军事委员会任命陈毅为新四军代理军长（盐城市）",
      "description": "中共中央革命军事委员会发布重建新四军军部的命令，任命陈毅为新四军代理军长，张云逸为副军长，刘少奇为政治委员，赖传珠为参谋长，邓子恢为政治部主任。",
      "phase": 3,
      "lng": 120.15655068913672,
      "lat": 33.34873496836566,
      "has_coords": true,
      "is_international": false
    },
    {
      "id": 266,
      "date": "1941-01-25",
      "date_num": 19410125,
      "year": 1941,
      "month": 1,
      "day": 25,
      "location": "盐城市",
      "title": "陈毅发表《论皖南事变及新四军的态度》一文（盐城市）",
      "description": "在中原局机关报《江淮日报》上发表《论皖南事变及新四军的态度》一文，重申新四军对时局的态度及今后的抗日方针，决心坚持抗战，反对投降；坚持团结，反对分裂。",
      "phase": 3,
      "lng": 120.15655068913672,
      "lat": 33.34873496836566,
      "has_coords": true,
      "is_international": false
    },
    {
      "id": 267,
      "date": "1941-01-29",
      "date_num": 19410129,
      "year": 1941,
      "month": 1,
      "day": 29,
      "location": "东台市",
      "title": "陈毅接见东台各界人士（东台市）",
      "description": "乘管文蔚派来的船前往东台。在下坝接见前来迎候的东台各界人士并讲话。",
      "phase": 3,
      "lng": 120.3097670498897,
      "lat": 32.855411137848755,
      "has_coords": true,
      "is_international": false
    },
    {
      "id": 268,
      "date": "1941-02-08",
      "date_num": 19410208,
      "year": 1941,
      "month": 2,
      "day": 8,
      "location": "盐城市",
      "title": "陈毅与赖传珠等谈南面情况（盐城市）",
      "description": "返回盐城军部，与赖传珠等谈南面情况。",
      "phase": 3,
      "lng": 120.15655068913672,
      "lat": 33.34873496836566,
      "has_coords": true,
      "is_international": false
    },
    {
      "id": 269,
      "date": "1941-02-12",
      "date_num": 19410212,
      "year": 1941,
      "month": 2,
      "day": 12,
      "location": "东台市",
      "title": "陈毅赴粟裕处（东台市）",
      "description": "再赴东台粟裕处。",
      "phase": 3,
      "lng": 120.3097670498897,
      "lat": 32.855411137848755,
      "has_coords": true,
      "is_international": false
    },
    {
      "id": 32,
      "date": "1941-03-20",
      "date_num": 19410320,
      "year": 1941,
      "month": 3,
      "day": 20,
      "location": "盐城市",
      "title": "陈毅接见罗生特（盐城市）",
      "description": "晚上，与刘少奇等接见刚抵盐城的奥地利医生罗生特，谓：本军将士热忱欢迎罗先生，冀协同努力，为抗击日寇、搞好本军医务工作贡献罗先生的才华。",
      "phase": 3,
      "lng": 120.15655068913672,
      "lat": 33.34873496836566,
      "has_coords": true,
      "is_international": false
    },
    {
      "id": 270,
      "date": "1941-04-16",
      "date_num": 19410416,
      "year": 1941,
      "month": 4,
      "day": 16,
      "location": "盐城市",
      "title": "陈毅参加苏北文化工作者协会代表大会（盐城市）",
      "description": "与刘少奇参加苏北文化工作者协会代表大会，并在会上训词——《为广泛开展苏北新文化事业而斗争》。",
      "phase": 3,
      "lng": 120.15655068913672,
      "lat": 33.34873496836566,
      "has_coords": true,
      "is_international": false
    },
    {
      "id": 271,
      "date": "1941-05-01",
      "date_num": 19410501,
      "year": 1941,
      "month": 5,
      "day": 1,
      "location": "盐城市",
      "title": "陈毅接见新安旅行团成员（盐城市）",
      "description": "与刘少奇接见头几批抵达军部的新安旅行团成员张拓、陈明、岳荣烈、郭华、韩风等，指示：你们在大后方，国民党不让你们同人民联系，到了根据地，你们要到群众斗争中去，同人民打成一片。",
      "phase": 3,
      "lng": 120.15655068913672,
      "lat": 33.34873496836566,
      "has_coords": true,
      "is_international": false
    },
    {
      "id": 272,
      "date": "1941-05-12",
      "date_num": 19410512,
      "year": 1941,
      "month": 5,
      "day": 12,
      "location": "盐城市",
      "title": "陈毅出席国际护士节纪念大会（盐城市）",
      "description": "与刘少奇出席在盐城召开的国际护士节纪念大会，高度评价南丁格尔救死扶伤的人道主义精神。",
      "phase": 3,
      "lng": 120.15655068913672,
      "lat": 33.34873496836566,
      "has_coords": true,
      "is_international": false
    },
    {
      "id": 273,
      "date": "1941-05-16",
      "date_num": 19410516,
      "year": 1941,
      "month": 5,
      "day": 16,
      "location": "盐城市",
      "title": "陈毅和刘少奇等召开华中局高级干部会议（盐城市）",
      "description": "和刘少奇等召开华中局高级干部会议，各区党委、各师主要领导人与会。",
      "phase": 3,
      "lng": 120.15655068913672,
      "lat": 33.34873496836566,
      "has_coords": true,
      "is_international": false
    },
    {
      "id": 274,
      "date": "1941-05-20",
      "date_num": 19410520,
      "year": 1941,
      "month": 5,
      "day": 20,
      "location": "盐城市",
      "title": "陈毅出席新四军军分会扩大会议（盐城市）",
      "description": "出席新四军军分会扩大会议，在会上作《建军问题的报告》。",
      "phase": 3,
      "lng": 120.15655068913672,
      "lat": 33.34873496836566,
      "has_coords": true,
      "is_international": false
    },
    {
      "id": 275,
      "date": "1941-05-30",
      "date_num": 19410530,
      "year": 1941,
      "month": 5,
      "day": 30,
      "location": "盐城市",
      "title": "陈毅出席盐城各界4000多人集会（盐城市）",
      "description": "出席盐城各界4000多人集会，隆重纪念五卅运动16周年。",
      "phase": 3,
      "lng": 120.15655068913672,
      "lat": 33.34873496836566,
      "has_coords": true,
      "is_international": false
    },
    {
      "id": 276,
      "date": "1941-07-01",
      "date_num": 19410701,
      "year": 1941,
      "month": 7,
      "day": 1,
      "location": "盐城市",
      "title": "陈毅出席华中局和军部举行的中共成立20周年纪念大会（盐城市）",
      "description": "夜，冒雨出席华中局和军部在盐城举行的中共成立20周年纪念大会，并在会上作《德苏战争爆发后所引起的世界新局势与中国抗战的关系》的报告。",
      "phase": 3,
      "lng": 120.15655068913672,
      "lat": 33.34873496836566,
      "has_coords": true,
      "is_international": false
    },
    {
      "id": 277,
      "date": "1941-07-10",
      "date_num": 19410710,
      "year": 1941,
      "month": 7,
      "day": 10,
      "location": "盐城市",
      "title": "陈毅发表《论建军工作》（盐城市）",
      "description": "在中共中央华中局出版的《真理》创刊号上发表《论建军工作》一文，进一步强调党对军队领导的重要性。",
      "phase": 3,
      "lng": 120.15655068913672,
      "lat": 33.34873496836566,
      "has_coords": true,
      "is_international": false
    },
    {
      "id": 278,
      "date": "1941-07-12",
      "date_num": 19410712,
      "year": 1941,
      "month": 7,
      "day": 12,
      "location": "盐城市",
      "title": "陈毅致电毛泽东（盐城市）",
      "description": "和刘少奇致电毛泽东，说：“如日本向苏联进攻，我们当号召全国向日寇反攻，即使国民党不积极反攻，我八路、新四亦必须独立反攻，以牵制日本，敌后某些据点可能放弃。”",
      "phase": 3,
      "lng": 120.15655068913672,
      "lat": 33.34873496836566,
      "has_coords": true,
      "is_international": false
    },
    {
      "id": 279,
      "date": "1941-08-25",
      "date_num": 19410825,
      "year": 1941,
      "month": 8,
      "day": 25,
      "location": "盐城市",
      "title": "陈毅发表《四年抗战与新四军现状》（盐城市）",
      "description": "在《八路军军政杂志》上发表《四年抗战与新四军现状》一文。",
      "phase": 3,
      "lng": 120.15655068913672,
      "lat": 33.34873496836566,
      "has_coords": true,
      "is_international": false
    },
    {
      "id": 280,
      "date": "1941-09-30",
      "date_num": 19410930,
      "year": 1941,
      "month": 9,
      "day": 30,
      "location": "宿迁市",
      "title": "陈毅抵达淮海区（宿迁市）",
      "description": "安抵淮海区。",
      "phase": 3,
      "lng": 118.26959606380768,
      "lat": 33.94585153550047,
      "has_coords": true,
      "is_international": false
    },
    {
      "id": 281,
      "date": "1942-01-01",
      "date_num": 19420101,
      "year": 1942,
      "month": 1,
      "day": 1,
      "location": "半城镇",
      "title": "陈毅作《目前形势和今后工作方针》的报告（半城镇）",
      "description": "参加四师师直机关和直属部队于半城召开的庆祝1942年元旦佳节会，并在会上作《目前形势和今后工作方针》的报告。",
      "phase": 3,
      "lng": 118.26953349337674,
      "lat": 33.57085744981675,
      "has_coords": true,
      "is_international": false
    },
    {
      "id": 282,
      "date": "1942-01-29",
      "date_num": 19420129,
      "year": 1942,
      "month": 1,
      "day": 29,
      "location": "盐城市",
      "title": "陈毅召开华中局会议（盐城市）",
      "description": "在他的办公室召开华中局会议，讨论四师及二师干部问。",
      "phase": 3,
      "lng": 120.15655068913672,
      "lat": 33.34873496836566,
      "has_coords": true,
      "is_international": false
    },
    {
      "id": 283,
      "date": "1942-02-07",
      "date_num": 19420207,
      "year": 1942,
      "month": 2,
      "day": 7,
      "location": "盐城市",
      "title": "陈毅出席华中抗大第五分校毕业典礼大会（盐城市）",
      "description": "带病出席华中抗大第五分校毕业典礼大会，并作讲话，后由担架抬回军部。",
      "phase": 3,
      "lng": 120.15655068913672,
      "lat": 33.34873496836566,
      "has_coords": true,
      "is_international": false
    },
    {
      "id": 284,
      "date": "1942-03-25",
      "date_num": 19420325,
      "year": 1942,
      "month": 3,
      "day": 25,
      "location": "盐城市",
      "title": "陈毅召开新四军军分会会议（盐城市）",
      "description": "下午，召开新四军军分会会议，讨论华中抗大工作，决定成立审计委及教委会。",
      "phase": 3,
      "lng": 120.15655068913672,
      "lat": 33.34873496836566,
      "has_coords": true,
      "is_international": false
    },
    {
      "id": 285,
      "date": "1942-05-07",
      "date_num": 19420507,
      "year": 1942,
      "month": 5,
      "day": 7,
      "location": "盐城市",
      "title": "陈毅在盐阜区各界人士座谈会上发表演说（盐城市）",
      "description": "在盐阜区各界人士座谈会上发表演说，对座谈会的形式，对 6 日各位代表的发言进行肯定，认为“中国 30 年来能这样聚合党政军民一起来商量国家大事，来商量老百姓自己的事，而且可以直言无隐，可以面折廷争，既不阿谀权贵，又不压迫下层，恐怕只有今天抗日民主根据地才可以找得到。”鉴于根据地现行参议会的初步办法不能满足人民和政府的需要，建议立即做好下列工作：第一，普遍实施新乡制；第二，在积极组训工人农民方面；第气，在建立抗战的正常杜会秩序方面；第四，关于民运工作方面；第五，关于呼吁加强团结问题。",
      "phase": 3,
      "lng": 120.15655068913672,
      "lat": 33.34873496836566,
      "has_coords": true,
      "is_international": false
    },
    {
      "id": 286,
      "date": "1942-05-16",
      "date_num": 19420516,
      "year": 1942,
      "month": 5,
      "day": 16,
      "location": "盐城市",
      "title": "陈毅参加阜宁县第二届农救会代表大会（盐城市）",
      "description": "应邀参加阜宁县第二届农救会代表大会，并作重要讲话，指出农民组织农救会是合乎天理、人情和国法的。对减租减息政策作了详细论述。",
      "phase": 3,
      "lng": 120.15655068913672,
      "lat": 33.34873496836566,
      "has_coords": true,
      "is_international": false
    },
    {
      "id": 287,
      "date": "1942-05-25",
      "date_num": 19420525,
      "year": 1942,
      "month": 5,
      "day": 25,
      "location": "盐城市",
      "title": "陈毅长子昊苏出生（盐城市）",
      "description": "第一个儿子在盐阜区侉周停翅港出生，取名小侉，后取学名昊苏。",
      "phase": 3,
      "lng": 120.15655068913672,
      "lat": 33.34873496836566,
      "has_coords": true,
      "is_international": false
    },
    {
      "id": 288,
      "date": "1942-06-18",
      "date_num": 19420618,
      "year": 1942,
      "month": 6,
      "day": 18,
      "location": "盐城市",
      "title": "陈毅召开整顿“三风”会议（盐城市）",
      "description": "下午，召开整顿“三风”会议，安排抗大、党校用3个月、部队用5个月时间进行整风，并研究实施的具体办法。",
      "phase": 3,
      "lng": 120.15655068913672,
      "lat": 33.34873496836566,
      "has_coords": true,
      "is_international": false
    },
    {
      "id": 289,
      "date": "1942-07-01",
      "date_num": 19420701,
      "year": 1942,
      "month": 7,
      "day": 1,
      "location": "盐城市",
      "title": "陈毅出席新四军军部在阜宁县驻地召开的1000人大会（盐城市）",
      "description": "晚上，出席新四军军部在阜宁县驻地召开的1000人大会，纪念中国共产党成立21周年。",
      "phase": 3,
      "lng": 120.15655068913672,
      "lat": 33.34873496836566,
      "has_coords": true,
      "is_international": false
    },
    {
      "id": 290,
      "date": "1942-07-14",
      "date_num": 19420714,
      "year": 1942,
      "month": 7,
      "day": 14,
      "location": "盐城市",
      "title": "陈毅欢迎上海文化人士阿英（盐城市）",
      "description": "与张茜欢迎从上海辗转来到苏北抗日根据地阜宁县停翅港的上海著名文化人士阿英（钱杏邨）及其全家，说要阿英来苏北的用意，是想通过调集一批上海文化人来重整军区文化工作，并问郭沫若、茅盾等人近况，还告诉阿英，10 年前他就读过他的评论著作。",
      "phase": 3,
      "lng": 120.15655068913672,
      "lat": 33.34873496836566,
      "has_coords": true,
      "is_international": false
    },
    {
      "id": 291,
      "date": "1942-08-07",
      "date_num": 19420807,
      "year": 1942,
      "month": 8,
      "day": 7,
      "location": "盐城市",
      "title": "陈毅作整风总结报告（盐城市）",
      "description": "到华中党校作整风总结报告。",
      "phase": 3,
      "lng": 120.15655068913672,
      "lat": 33.34873496836566,
      "has_coords": true,
      "is_international": false
    },
    {
      "id": 292,
      "date": "1942-11-19",
      "date_num": 19421119,
      "year": 1942,
      "month": 11,
      "day": 19,
      "location": "盐城市",
      "title": "陈毅向中共中央和毛泽东报告对于统一华中领导的意见（盐城市）",
      "description": "向中共中央和毛泽东报告自己对于统一华中领导的意见。",
      "phase": 3,
      "lng": 120.15655068913672,
      "lat": 33.34873496836566,
      "has_coords": true,
      "is_international": false
    },
    {
      "id": 293,
      "date": "1942-12-17",
      "date_num": 19421217,
      "year": 1942,
      "month": 12,
      "day": 17,
      "location": "盐城市",
      "title": "陈毅参加华中抗大总分校研究班开学典礼（盐城市）",
      "description": "陈毅与饶漱石到华中抗大总分校研究班参加开学典礼。",
      "phase": 3,
      "lng": 120.15655068913672,
      "lat": 33.34873496836566,
      "has_coords": true,
      "is_international": false
    },
    {
      "id": 294,
      "date": "1943-01-01",
      "date_num": 19430101,
      "year": 1943,
      "month": 1,
      "day": 1,
      "location": "戴楼镇",
      "title": "陈毅到达淮南永丰附近（戴楼镇）",
      "description": "和饶漱石等率领华中局和军部到达淮南永丰附近宿营，部队住得很散。",
      "phase": 3,
      "lng": 119.43051707362979,
      "lat": 33.77842263382175,
      "has_coords": true,
      "is_international": false
    },
    {
      "id": 33,
      "date": "1943-01-10",
      "date_num": 19430110,
      "year": 1943,
      "month": 1,
      "day": 10,
      "location": "黄花塘村",
      "title": "陈毅率部抵达黄花塘（黄花塘镇）",
      "description": "和饶漱石率华中局和军部经10余天长途跋涉，于是日转移到淮南路东抗日根据地盱眙县黄花塘村，原驻此地的二师师部迁到天长县大刘郢。",
      "phase": 3,
      "lng": 118.77390761821495,
      "lat": 32.94576170814895,
      "has_coords": true,
      "is_international": false
    },
    {
      "id": 295,
      "date": "1943-02-16",
      "date_num": 19430216,
      "year": 1943,
      "month": 2,
      "day": 16,
      "location": "盐城市",
      "title": "陈毅指示第三、第四、第一师进行反“扫荡”作战（黄花塘镇）",
      "description": "与饶漱石等向第三、第四、第一师发出反“扫荡”作战指示。指出敌“对盐阜区之‘扫荡’是局部性的，非华中全区性，时间似不会很长。”据此，“我们的中心任务是坚持与保卫盐阜区根据地，粉碎敌人‘扫荡’，并适当配合友军作战，扩大我之政治影响，以促进全国团结和国共关系的改善。”",
      "phase": 3,
      "lng": 120.15655068913672,
      "lat": 33.34873496836566,
      "has_coords": true,
      "is_international": false
    },
    {
      "id": 296,
      "date": "1943-03-23",
      "date_num": 19430323,
      "year": 1943,
      "month": 3,
      "day": 23,
      "location": "半城镇",
      "title": "陈毅前往四师所在地半城（半城镇）",
      "description": "与新华社华中分社社长范长江一行离开军部，前往四师所在地半城。",
      "phase": 3,
      "lng": 118.26953349337674,
      "lat": 33.57085744981675,
      "has_coords": true,
      "is_international": false
    },
    {
      "id": 297,
      "date": "1943-07-01",
      "date_num": 19430701,
      "year": 1943,
      "month": 7,
      "day": 1,
      "location": "黄花塘镇",
      "title": "陈毅参加中国共产党成立22周年纪念大会（黄花塘镇）",
      "description": "新四军召开中国共产党成立22周年纪念大会，陈毅在会上作中共历史及目前华中工作任务的报告。",
      "phase": 3,
      "lng": 118.77390761821495,
      "lat": 32.94576170814895,
      "has_coords": true,
      "is_international": false
    },
    {
      "id": 298,
      "date": "1943-07-01",
      "date_num": 19430701,
      "year": 1943,
      "month": 7,
      "day": 1,
      "location": "黄花塘镇",
      "title": "陈毅作报告（黄花塘镇）",
      "description": "新四军召开中国共产党成立22周年纪念大会，陈毅在会上作中共历史及目前华中工作任务的报告。",
      "phase": 3,
      "lng": 118.77390761821495,
      "lat": 32.94576170814895,
      "has_coords": true,
      "is_international": false
    },
    {
      "id": 299,
      "date": "1943-09-28",
      "date_num": 19430928,
      "year": 1943,
      "month": 9,
      "day": 28,
      "location": "黄花塘镇",
      "title": "陈毅次子丹淮出生（黄花塘镇）",
      "description": "次子出生，取名丹淮。",
      "phase": 3,
      "lng": 118.77390761821495,
      "lat": 32.94576170814895,
      "has_coords": true,
      "is_international": false
    },
    {
      "id": 300,
      "date": "1944-03-07",
      "date_num": 19440307,
      "year": 1944,
      "month": 3,
      "day": 7,
      "location": "延安市",
      "title": "陈毅抵达延安（延安市）",
      "description": "抵延安，与毛泽东、刘少奇、彭德怀、李富春等合影。",
      "phase": 3,
      "lng": 109.48419612400271,
      "lat": 36.58520261227548,
      "has_coords": true,
      "is_international": false
    },
    {
      "id": 301,
      "date": "1944-04-01",
      "date_num": 19440401,
      "year": 1944,
      "month": 4,
      "day": 1,
      "location": "延安市",
      "title": "陈毅提交《1938年至1943年的华中工作总结报告》（延安市）",
      "description": "撰毕给中共中央和中央军委的一份《1938年至1943年的华中工作总结报告》。",
      "phase": 3,
      "lng": 109.48419612400271,
      "lat": 36.58520261227548,
      "has_coords": true,
      "is_international": false
    },
    {
      "id": 302,
      "date": "1944-09-27",
      "date_num": 19440927,
      "year": 1944,
      "month": 9,
      "day": 27,
      "location": "延安市",
      "title": "陈毅起草《关于开展苏浙皖地区工作给华中局的指示》（延安市）",
      "description": "为中共中央起草《关于开展苏浙皖地区工作给华中局的指示》。",
      "phase": 3,
      "lng": 109.48419612400271,
      "lat": 36.58520261227548,
      "has_coords": true,
      "is_international": false
    },
    {
      "id": 303,
      "date": "1944-10-01",
      "date_num": 19441001,
      "year": 1944,
      "month": 10,
      "day": 1,
      "location": "延安市",
      "title": "福尔曼采访陈毅（延安市）",
      "description": "接受福尔曼采访，向福尔曼介绍说：1938年，新四军开入长江一带，立即开始打日军、伪军、地方盗匪；新四军没有后方根据地来供给作战的必要物资，因此总得自动地找寻出敌人的弱点，以便进攻这些弱点，求得武器与给养。",
      "phase": 3,
      "lng": 109.48419612400271,
      "lat": 36.58520261227548,
      "has_coords": true,
      "is_international": false
    },
    {
      "id": 304,
      "date": "1945-02-18",
      "date_num": 19450218,
      "year": 1945,
      "month": 2,
      "day": 18,
      "location": "延安市",
      "title": "陈毅参加中共六届七中全会全体会议（延安市）",
      "description": "参加中共六届七中全会全体会议，会议听取周恩来关于同国民党谈判情况的报告。",
      "phase": 3,
      "lng": 109.48419612400271,
      "lat": 36.58520261227548,
      "has_coords": true,
      "is_international": false
    },
    {
      "id": 34,
      "date": "1945-04-23",
      "date_num": 19450423,
      "year": 1945,
      "month": 4,
      "day": 23,
      "location": "延安市",
      "title": "中国共产党第七次全国代表大会召开（延安市）",
      "description": "出席在延安杨家岭中央大礼堂举行的中国共产党第七次全国代表大会开幕式。",
      "phase": 3,
      "lng": 109.48419612400271,
      "lat": 36.58520261227548,
      "has_coords": true,
      "is_international": false
    },
    {
      "id": 35,
      "date": "1945-04-23",
      "date_num": 19450423,
      "year": 1945,
      "month": 4,
      "day": 23,
      "location": "延安市",
      "title": "陈毅创作《七大开幕》（延安市）",
      "description": "并作颂诗《七大开幕》一首：百年积弱叹华夏，八载干戈仗延安。试问九州谁作主？万众瞩目清凉山。",
      "phase": 3,
      "lng": 109.48419612400271,
      "lat": 36.58520261227548,
      "has_coords": true,
      "is_international": false
    },
    {
      "id": 36,
      "date": "1945-05-01",
      "date_num": 19450501,
      "year": 1945,
      "month": 5,
      "day": 1,
      "location": "延安市",
      "title": "陈毅在中共七大上发言（延安市）",
      "description": "代表华中、新四军在七大上发言，详尽地说明了党在新四军和华中工作的历史，深刻地总结了党领导新四军和华中人民抗击日本侵略者的经验。",
      "phase": 3,
      "lng": 109.48419612400271,
      "lat": 36.58520261227548,
      "has_coords": true,
      "is_international": false
    },
    {
      "id": 305,
      "date": "1945-06-10",
      "date_num": 19450610,
      "year": 1945,
      "month": 6,
      "day": 10,
      "location": "延安市",
      "title": "陈毅出席中共七大（延安市）",
      "description": "出席中共七大。大会公布昨日正式中央委员选举结果，共选出正式中央委员44人，陈毅当选正式中央委员。接着，大会听取毛泽东作关于选举候补中央委员问题的报告。毛泽东报告后，大会进行选举候补中央委员的投票。",
      "phase": 3,
      "lng": 109.48419612400271,
      "lat": 36.58520261227548,
      "has_coords": true,
      "is_international": false
    },
    {
      "id": 306,
      "date": "1945-08-09",
      "date_num": 19450809,
      "year": 1945,
      "month": 8,
      "day": 9,
      "location": "延安市",
      "title": "陈毅出席中共七届一中全会第二次会议（延安市）",
      "description": "出席在杨家岭召开的中共七届一中全会第二次会议。会议通过分别根据六届七中全会和七大的讨论意见修改后的《关于若干历史问题的决议》和《中国共产党章程》，会议着重讨论时局问题。",
      "phase": 3,
      "lng": 109.48419612400271,
      "lat": 36.58520261227548,
      "has_coords": true,
      "is_international": false
    },
    {
      "id": 307,
      "date": "1945-08-23",
      "date_num": 19450823,
      "year": 1945,
      "month": 8,
      "day": 23,
      "location": "延安市",
      "title": "陈毅出席中共中央政治局扩大会议（延安市）",
      "description": "出席中共中央政治局扩大会议。因蒋介石电邀毛泽东赴重庆谈判，会议决定毛泽东、周恩来等到重庆同国民党进行谈判。会议还决定组成以毛泽东为首的新的中共中央革命军事委员会，陈毅为12委员之一。",
      "phase": 3,
      "lng": 109.48419612400271,
      "lat": 36.58520261227548,
      "has_coords": true,
      "is_international": false
    },
    {
      "id": 308,
      "date": "1945-08-23",
      "date_num": 19450823,
      "year": 1945,
      "month": 8,
      "day": 23,
      "location": "延安市",
      "title": "陈毅被选为中共中央革命军事委员会委员（延安市）",
      "description": "出席中共中央政治局扩大会议。因蒋介石电邀毛泽东赴重庆谈判，会议决定毛泽东、周恩来等到重庆同国民党进行谈判。会议还决定组成以毛泽东为首的新的中共中央革命军事委员会，陈毅为12委员之一。",
      "phase": 3,
      "lng": 109.48419612400271,
      "lat": 36.58520261227548,
      "has_coords": true,
      "is_international": false
    },
    {
      "id": 309,
      "date": "1945-09-19",
      "date_num": 19450919,
      "year": 1945,
      "month": 9,
      "day": 19,
      "location": "延安市",
      "title": "陈毅、饶漱石被派到山东工作（延安市）",
      "description": "因山东八路军主力及大部分干部调往东北，由新四军调8万兵力到山东和冀东。将江南新四军主力撤返江北。罗荣桓到东北工作。山东分局改为华东局，陈毅，饶漱石到山东工作。",
      "phase": 3,
      "lng": 109.48419612400271,
      "lat": 36.58520261227548,
      "has_coords": true,
      "is_international": false
    },
    {
      "id": 310,
      "date": "1945-10-15",
      "date_num": 19451015,
      "year": 1945,
      "month": 10,
      "day": 15,
      "location": "邹城市",
      "title": "陈毅和黎玉负责津浦前线指挥部（邹城市）",
      "description": "遵照中央军委指示，成立津浦前线指挥部，由陈毅和黎玉负责。是日晚，陈毅和黎玉率指挥部进驻邹县香城，着手组织津浦路徐（州）济（南）段战役。",
      "phase": 3,
      "lng": 116.96750644061679,
      "lat": 35.40634432825592,
      "has_coords": true,
      "is_international": false
    },
    {
      "id": 311,
      "date": "1945-10-20",
      "date_num": 19451020,
      "year": 1945,
      "month": 10,
      "day": 20,
      "location": "延安市",
      "title": "中共中央、中央军委决定陈毅兼山东军区司令员（延安市）",
      "description": "中共中央决定陈毅兼山东军区司令员。",
      "phase": 3,
      "lng": 109.48419612400271,
      "lat": 36.58520261227548,
      "has_coords": true,
      "is_international": false
    },
    {
      "id": 312,
      "date": "1945-10-25",
      "date_num": 19451025,
      "year": 1945,
      "month": 10,
      "day": 25,
      "location": "临沂市",
      "title": "中国共产党华东中央局成立（临沂市）",
      "description": "华中局、新四军军部由苏北淮阴进抵山东临沂城，与中共中央山东分局及山东军区会合，随后成立中国共产党华东中央局，统一领导华中、山东的全盘工作。12月18日中共中央书记处复电同意由陈毅、张云逸、黎玉、饶漱石、舒同为中共华东局常委，以饶漱石为书记，陈毅、黎玉为副书记。",
      "phase": 3,
      "lng": 118.35064582005114,
      "lat": 35.104592939063146,
      "has_coords": true,
      "is_international": false
    },
    {
      "id": 313,
      "date": "1945-12-18",
      "date_num": 19451218,
      "year": 1945,
      "month": 12,
      "day": 18,
      "location": "临沂市",
      "title": "陈毅任中共华东局常委（临沂市）",
      "description": "华中局、新四军军部由苏北淮阴进抵山东临沂城，与中共中央山东分局及山东军区会合，随后成立中国共产党华东中央局，统一领导华中、山东的全盘工作。12月18日中共中央书记处复电同意由陈毅、张云逸、黎玉、饶漱石、舒同为中共华东局常委，以饶漱石为书记，陈毅、黎玉为副书记。",
      "phase": 4,
      "lng": 118.35064582005114,
      "lat": 35.104592939063146,
      "has_coords": true,
      "is_international": false
    },
    {
      "id": 314,
      "date": "1946-01-07",
      "date_num": 19460107,
      "year": 1946,
      "month": 1,
      "day": 7,
      "location": "临沂市",
      "title": "陈毅任新四军军长（临沂市）",
      "description": "中共中央军委正式决定新四军军部与山东军区合并，统一指挥山东和华中部队。陈毅任新四军军长兼山东军区司令员，张云逸任新四军第一副军长兼山东军区第一副司令员。",
      "phase": 4,
      "lng": 118.35064582005114,
      "lat": 35.104592939063146,
      "has_coords": true,
      "is_international": false
    },
    {
      "id": 315,
      "date": "1946-02-11",
      "date_num": 19460211,
      "year": 1946,
      "month": 2,
      "day": 11,
      "location": "临沂市",
      "title": "陈毅参加华东局和山东军区干部会议（临沂市）",
      "description": "华东局和山东军区在临沂召开区党委、军区、纵队领导干部会议。陈毅在会上传达中共中央2月1日《关于目前形势和任务的指示》。",
      "phase": 4,
      "lng": 118.35064582005114,
      "lat": 35.104592939063146,
      "has_coords": true,
      "is_international": false
    },
    {
      "id": 316,
      "date": "1946-02-11",
      "date_num": 19460211,
      "year": 1946,
      "month": 2,
      "day": 11,
      "location": "临沂市",
      "title": "陈毅传达中共中央《关于目前形势和任务的指示》（临沂市）",
      "description": "华东局和山东军区在临沂召开区党委、军区、纵队领导干部会议。陈毅在会上传达中共中央2月1日《关于目前形势和任务的指示》。",
      "phase": 4,
      "lng": 118.35064582005114,
      "lat": 35.104592939063146,
      "has_coords": true,
      "is_international": false
    },
    {
      "id": 317,
      "date": "1946-06-07",
      "date_num": 19460607,
      "year": 1946,
      "month": 6,
      "day": 7,
      "location": "",
      "title": "陈毅等进行讨逆战役",
      "description": "为打击国民党收编的在停战令生效后不断向解放去挑衅的伪军，陈毅等以山东野战军第一纵队、第七、第八师一部，鲁中军区、渤海军区和胶东军区部队，在胶济、津浦路上进行讨逆战役。",
      "phase": 4,
      "lng": null,
      "lat": null,
      "has_coords": false,
      "is_international": false
    },
    {
      "id": 318,
      "date": "1946-07-14",
      "date_num": 19460714,
      "year": 1946,
      "month": 7,
      "day": 14,
      "location": "临沂市",
      "title": "陈毅参加山野前方指挥部干部会议（临沂市）",
      "description": "在山野前方指挥部干部会议上作《如何取得战争的胜利》的报告，阐明要坚持运动战和歼灭战的方针，争取自卫战争的胜利。",
      "phase": 4,
      "lng": 118.35064582005114,
      "lat": 35.104592939063146,
      "has_coords": true,
      "is_international": false
    },
    {
      "id": 319,
      "date": "1946-07-14",
      "date_num": 19460714,
      "year": 1946,
      "month": 7,
      "day": 14,
      "location": "临沂市",
      "title": "陈毅作《如何取得战争的胜利》的报告（临沂市）",
      "description": "在山野前方指挥部干部会议上作《如何取得战争的胜利》的报告，阐明要坚持运动战和歼灭战的方针，争取自卫战争的胜利。",
      "phase": 4,
      "lng": 118.35064582005114,
      "lat": 35.104592939063146,
      "has_coords": true,
      "is_international": false
    },
    {
      "id": 320,
      "date": "1946-12-13",
      "date_num": 19461213,
      "year": 1946,
      "month": 12,
      "day": 13,
      "location": "",
      "title": "宿北战役",
      "description": "陈毅与粟裕等为了保证不失时机地发起战役，令第一纵队、第八师于当晚向新安镇西南的新店子以北地区隐蔽开进。",
      "phase": 4,
      "lng": null,
      "lat": null,
      "has_coords": false,
      "is_international": false
    },
    {
      "id": 321,
      "date": "1946-12-15",
      "date_num": 19461215,
      "year": 1946,
      "month": 12,
      "day": 15,
      "location": "宿迁市",
      "title": "陈毅作《宿北大捷》（宿迁市）",
      "description": "黄昏，与粟裕等指挥部队对敌整编第六十九师发起攻击，经4昼夜激战，全歼该敌2万余人。战后，陈毅作《宿北大捷》诗一首以示庆贺。",
      "phase": 4,
      "lng": 118.26959606380768,
      "lat": 33.94585153550047,
      "has_coords": true,
      "is_international": false
    },
    {
      "id": 37,
      "date": "1947-01-01",
      "date_num": 19470101,
      "year": 1947,
      "month": 1,
      "day": 1,
      "location": "临沂市",
      "title": "华东野战军成立（临沂市）",
      "description": "新四军军部改为华东军区机关，华中野战军与山东野战军合并，组成华东野战军，建立党的华东野战军前线委员会。",
      "phase": 4,
      "lng": 118.35064582005114,
      "lat": 35.104592939063146,
      "has_coords": true,
      "is_international": false
    },
    {
      "id": 38,
      "date": "1947-01-01",
      "date_num": 19470101,
      "year": 1947,
      "month": 1,
      "day": 1,
      "location": "临沂市",
      "title": "陈毅任华东军区、华东野战军司令员兼政治委员、华东野战军前委书记（临沂市）",
      "description": "华东军区由陈毅任司令员，饶漱石任政治委员，张云逸任副司令员，黎玉任副政治委员，陈士榘、袁仲贤任正副参谋长，舒同任政治部主任，唐亮、张凯任副主任。",
      "phase": 4,
      "lng": 118.35064582005114,
      "lat": 35.104592939063146,
      "has_coords": true,
      "is_international": false
    },
    {
      "id": 39,
      "date": "1947-01-02",
      "date_num": 19470102,
      "year": 1947,
      "month": 1,
      "day": 2,
      "location": "临沂市",
      "title": "陈毅在鲁南会议上做报告（临沂市）",
      "description": "在临沂附近召开干部会议（鲁南会议）。陈毅代表前委作了“一面打仗，一面建设”的报告。",
      "phase": 4,
      "lng": 118.35064582005114,
      "lat": 35.104592939063146,
      "has_coords": true,
      "is_international": false
    },
    {
      "id": 322,
      "date": "1947-01-02",
      "date_num": 19470102,
      "year": 1947,
      "month": 1,
      "day": 2,
      "location": "",
      "title": "鲁南战役",
      "description": "晚上10时，与粟裕等集中27个团的兵力，分左右两路正式发起鲁南战役。",
      "phase": 4,
      "lng": null,
      "lat": null,
      "has_coords": false,
      "is_international": false
    },
    {
      "id": 323,
      "date": "1947-03-08",
      "date_num": 19470308,
      "year": 1947,
      "month": 3,
      "day": 8,
      "location": "淄川区",
      "title": "陈毅参加华野前委扩大会议（淄川区）",
      "description": "在淄川大矿地主持召开华野前委扩大会议，传达并讨论贯彻执行中央2月1日关于《迎接中国革命的新高潮》的指示，总结8个月作战经验，部署休整期间工作，准备迎接敌人对山东的新的进攻。",
      "phase": 4,
      "lng": 117.96079211873342,
      "lat": 36.64282891429401,
      "has_coords": true,
      "is_international": false
    },
    {
      "id": 324,
      "date": "1947-05-13",
      "date_num": 19470513,
      "year": 1947,
      "month": 5,
      "day": 13,
      "location": "孟良崮",
      "title": "孟良崮战役",
      "description": "晚上，和粟裕以第一、八纵队隐蔽地切入敌第七十四师与其友邻部队的结合部，并抢占了制高点；第四、九纵队发起正面攻击。次日上午，隐伏在鲁南的第六纵队急行100公里山路赶至垛庄，切断了敌军退路。随后5个纵队逐步将敌第七十四师包围于孟良崮、芦山地区。15日下午1时，我军发起总攻，激战至次日下午5时，将整编第七十四师及整编第八十三师1个团共3.2万余人全部歼灭，击毙第七十四师中将师长张灵甫，取得了孟良崮战役的巨大胜利。",
      "phase": 4,
      "lng": 117.93437529355379,
      "lat": 35.49033542454036,
      "has_coords": true,
      "is_international": false
    },
    {
      "id": 325,
      "date": "1947-05-13",
      "date_num": 19470513,
      "year": 1947,
      "month": 5,
      "day": 13,
      "location": "孟良崮",
      "title": "陈毅、粟裕指挥华东野战军作战（孟良崮）",
      "description": "晚上，和粟裕以第一、八纵队隐蔽地切入敌第七十四师与其友邻部队的结合部，并抢占了制高点；第四、九纵队发起正面攻击。次日上午，隐伏在鲁南的第六纵队急行100公里山路赶至垛庄，切断了敌军退路。随后5个纵队逐步将敌第七十四师包围于孟良崮、芦山地区。15日下午1时，我军发起总攻，激战至次日下午5时，将整编第七十四师及整编第八十三师1个团共3.2万余人全部歼灭，击毙第七十四师中将师长张灵甫，取得了孟良崮战役的巨大胜利。",
      "phase": 4,
      "lng": 117.93437529355379,
      "lat": 35.49033542454036,
      "has_coords": true,
      "is_international": false
    },
    {
      "id": 326,
      "date": "1947-05-13",
      "date_num": 19470513,
      "year": 1947,
      "month": 5,
      "day": 13,
      "location": "孟良崮",
      "title": "陈毅和粟裕率部取得孟良崮战役胜利（孟良崮）",
      "description": "晚上，和粟裕以第一、八纵队隐蔽地切入敌第七十四师与其友邻部队的结合部，并抢占了制高点；第四、九纵队发起正面攻击。次日上午，隐伏在鲁南的第六纵队急行100公里山路赶至垛庄，切断了敌军退路。随后5个纵队逐步将敌第七十四师包围于孟良崮、芦山地区。15日下午1时，我军发起总攻，激战至次日下午5时，将整编第七十四师及整编第八十三师1个团共3.2万余人全部歼灭，击毙第七十四师中将师长张灵甫，取得了孟良崮战役的巨大胜利。",
      "phase": 4,
      "lng": 117.93437529355379,
      "lat": 35.49033542454036,
      "has_coords": true,
      "is_international": false
    },
    {
      "id": 327,
      "date": "1947-05-25",
      "date_num": 19470525,
      "year": 1947,
      "month": 5,
      "day": 25,
      "location": "沂水县",
      "title": "陈毅作《关于目前形势与任务问题》的报告（沂水县）",
      "description": "华东野战军前委在沂水西北的坡庄召开全军团以上干部会议。29日晚上，陈毅在会上根据当前战局的特点，针对部队的思想情况，作了关于目前形势与任务问题的报告。",
      "phase": 4,
      "lng": 118.6293974537525,
      "lat": 35.78836839471268,
      "has_coords": true,
      "is_international": false
    },
    {
      "id": 328,
      "date": "1948-01-07",
      "date_num": 19480107,
      "year": 1948,
      "month": 1,
      "day": 7,
      "location": "杨家沟",
      "title": "陈毅向中共中央报到（杨家沟）",
      "description": "到达陕北米脂县杨家沟向中共中央报到。",
      "phase": 4,
      "lng": 110.20831230882575,
      "lat": 37.84106319883278,
      "has_coords": true,
      "is_international": false
    },
    {
      "id": 329,
      "date": "1948-01-18",
      "date_num": 19480118,
      "year": 1948,
      "month": 1,
      "day": 18,
      "location": "杨家沟",
      "title": "陈毅参加毛泽东召开的会议（杨家沟）",
      "description": "毛泽东、周恩来、任弼时、彭德怀、贺龙、陈毅、陆定一等召开会议，原则通过中共中央关于目前人民革命战争与土地改革运动的几项重要问题的决定（草案）。",
      "phase": 4,
      "lng": 110.20831230882575,
      "lat": 37.84106319883278,
      "has_coords": true,
      "is_international": false
    },
    {
      "id": 330,
      "date": "1948-01-19",
      "date_num": 19480119,
      "year": 1948,
      "month": 1,
      "day": 19,
      "location": "杨家沟",
      "title": "陈毅参加中共中央负责人会议（杨家沟）",
      "description": "在中共中央负责人会议上汇报华东野战军的情况，共讲九个问题。",
      "phase": 4,
      "lng": 110.20831230882575,
      "lat": 37.84106319883278,
      "has_coords": true,
      "is_international": false
    },
    {
      "id": 331,
      "date": "1948-01-19",
      "date_num": 19480119,
      "year": 1948,
      "month": 1,
      "day": 19,
      "location": "杨家沟",
      "title": "陈毅汇报华东野战军情况（杨家沟）",
      "description": "在中共中央负责人会议上汇报华东野战军的情况，共讲九个问题。",
      "phase": 4,
      "lng": 110.20831230882575,
      "lat": 37.84106319883278,
      "has_coords": true,
      "is_international": false
    },
    {
      "id": 332,
      "date": "1948-02-02",
      "date_num": 19480202,
      "year": 1948,
      "month": 2,
      "day": 2,
      "location": "杨家沟",
      "title": "毛泽东任命陈毅为东南野战军司令员兼政治委员（杨家沟）",
      "description": "中共中央办公厅为陈毅饯行。毛泽东亲笔写了一个手令面交陈毅。手令内容是任命陈毅为东南野战军司令员兼政治委员，粟裕为东南野战军副司令兼副政治委员，又兼东南野战军第一兵团司令员兼政治委员，叶飞为东南野战军第一兵团副司令员兼副政治委员。",
      "phase": 4,
      "lng": 110.20831230882575,
      "lat": 37.84106319883278,
      "has_coords": true,
      "is_international": false
    },
    {
      "id": 40,
      "date": "1948-04-30",
      "date_num": 19480430,
      "year": 1948,
      "month": 4,
      "day": 30,
      "location": "城南庄镇",
      "title": "陈毅参加中共中央书记处会议（城南庄镇）",
      "description": "抵阜平城南庄，参加由毛泽东主持的中共中央书记处会议。",
      "phase": 4,
      "lng": 113.89649313179311,
      "lat": 38.84663448100405,
      "has_coords": true,
      "is_international": false
    },
    {
      "id": 41,
      "date": "1948-04-30",
      "date_num": 19480430,
      "year": 1948,
      "month": 4,
      "day": 30,
      "location": "城南庄镇",
      "title": "陈毅汇报中原情况（城南庄镇）",
      "description": "在会上，陈毅、粟裕、李先念详细汇报了中原的情况。",
      "phase": 4,
      "lng": 113.89649313179311,
      "lat": 38.84663448100405,
      "has_coords": true,
      "is_international": false
    },
    {
      "id": 333,
      "date": "1948-04-30",
      "date_num": 19480430,
      "year": 1948,
      "month": 4,
      "day": 30,
      "location": "城南庄镇",
      "title": "陈毅参加中共中央书记处会议（城南庄镇）",
      "description": "抵达阜平城南庄，参加由毛泽东主持的中共中央书记处会议。",
      "phase": 4,
      "lng": 113.89649313179311,
      "lat": 38.84663448100405,
      "has_coords": true,
      "is_international": false
    },
    {
      "id": 42,
      "date": "1948-05-09",
      "date_num": 19480509,
      "year": 1948,
      "month": 5,
      "day": 9,
      "location": "城南庄镇",
      "title": "陈毅任中央中原局第二书记（城南庄镇）",
      "description": "中共中央发出《华北、中原两解放区的辖区和人选》的通电。其中对中原的决定如下：“除华中解放区现辖境地外，凡陇海以南，长江以北，直到川陕边区均属中原解放区。中原中央局以邓小平为第一书记。陈毅为第二书记，邓子恢为第三书记。以刘伯承、邓小平、陈毅、邓子恢、李先念、宋任穷、粟裕、李雪峰、陈赓、张际春、谢富治、刘子久12同志为委员。”",
      "phase": 4,
      "lng": 113.89649313179311,
      "lat": 38.84663448100405,
      "has_coords": true,
      "is_international": false
    },
    {
      "id": 334,
      "date": "1948-09-04",
      "date_num": 19480904,
      "year": 1948,
      "month": 9,
      "day": 4,
      "location": "",
      "title": "陈毅召开中原局会议",
      "description": "召开中原局会议，讨论中央关于克服无纪律无政府状态和报告制度的决定。",
      "phase": 4,
      "lng": null,
      "lat": null,
      "has_coords": false,
      "is_international": false
    },
    {
      "id": 335,
      "date": "1948-10-21",
      "date_num": 19481021,
      "year": 1948,
      "month": 10,
      "day": 21,
      "location": "",
      "title": "郑州战役",
      "description": "晚上，与邓小平指挥中野第一、三、四、九纵队，在位于黄河北岸的华北军区第十四纵队的协助下，正式发起郑州战役。",
      "phase": 4,
      "lng": null,
      "lat": null,
      "has_coords": false,
      "is_international": false
    },
    {
      "id": 336,
      "date": "1948-11-11",
      "date_num": 19481111,
      "year": 1948,
      "month": 11,
      "day": 11,
      "location": "",
      "title": "淮海战役",
      "description": "夜，与刘伯承、邓小平指挥中野一、三、四、九纵队及华野第三、两广纵队等由永城以北向宿县前进，发起徐蚌会战。",
      "phase": 4,
      "lng": null,
      "lat": null,
      "has_coords": false,
      "is_international": false
    },
    {
      "id": 337,
      "date": "1948-12-13",
      "date_num": 19481213,
      "year": 1948,
      "month": 12,
      "day": 13,
      "location": "徐州市",
      "title": "陈毅与刘伯承、邓小平率部歼灭黄维兵团（徐州市）",
      "description": "夜，与刘伯承、邓小平指挥部队对黄维兵团发起总攻，激战至15日午夜，全歼黄维兵团4个军、11个师，生俘兵团司令官黄维、副司令官吴绍周。至此，淮海战役第二阶段胜利结束。",
      "phase": 4,
      "lng": 117.27834082638104,
      "lat": 34.263068752849996,
      "has_coords": true,
      "is_international": false
    },
    {
      "id": 338,
      "date": "1948-12-13",
      "date_num": 19481213,
      "year": 1948,
      "month": 12,
      "day": 13,
      "location": "徐州市",
      "title": "陈毅与刘伯承、邓小平率部歼灭黄维兵团（徐州市）",
      "description": "夜，与刘伯承、邓小平指挥部队对黄维兵团发起总攻，激战至15日午夜，全歼黄维兵团4个军、11个师，生俘兵团司令官黄维、副司令官吴绍周。至此，淮海战役第二阶段胜利结束。",
      "phase": 4,
      "lng": 117.27834082638104,
      "lat": 34.263068752849996,
      "has_coords": true,
      "is_international": false
    },
    {
      "id": 339,
      "date": "1948-12-18",
      "date_num": 19481218,
      "year": 1948,
      "month": 12,
      "day": 18,
      "location": "萧县",
      "title": "陈毅与刘伯承等人召开总前委会议（萧县）",
      "description": "与刘、邓、粟、谭召开总前委命议，并合影留念。",
      "phase": 4,
      "lng": 116.93942594488439,
      "lat": 34.19036746295344,
      "has_coords": true,
      "is_international": false
    },
    {
      "id": 340,
      "date": "1948-12-28",
      "date_num": 19481228,
      "year": 1948,
      "month": 12,
      "day": 28,
      "location": "西柏坡",
      "title": "刘伯承、陈毅赴中央研究渡江作战问题（西柏坡）",
      "description": "到达西柏坡。",
      "phase": 4,
      "lng": 113.94682773207468,
      "lat": 38.295916001011314,
      "has_coords": true,
      "is_international": false
    },
    {
      "id": 341,
      "date": "1949-01-01",
      "date_num": 19490101,
      "year": 1949,
      "month": 1,
      "day": 1,
      "location": "西柏坡",
      "title": "新华社发表毛泽东《将革命进行到底》的新年献词（西柏坡）",
      "description": "新华社发表了中共中央主席毛泽东写的题为《将革命进行到底》的新年献词，提出了1949年中国人民解放军向长江以南进军，解放全中国，将革命进行到底。",
      "phase": 4,
      "lng": 113.94682773207468,
      "lat": 38.295916001011314,
      "has_coords": true,
      "is_international": false
    },
    {
      "id": 342,
      "date": "1949-01-01",
      "date_num": 19490101,
      "year": 1949,
      "month": 1,
      "day": 1,
      "location": "西柏坡",
      "title": "陈毅参加中央财经座谈会（西柏坡）",
      "description": "和朱德、董必武及各大区负责人刘伯承、林彪、饶漱石、高岗、罗荣桓、薄一波等参加中央召开的财经座谈会。",
      "phase": 4,
      "lng": 113.94682773207468,
      "lat": 38.295916001011314,
      "has_coords": true,
      "is_international": false
    },
    {
      "id": 357,
      "date": "1949-01-01",
      "date_num": 19490101,
      "year": 1949,
      "month": 1,
      "day": 1,
      "location": "",
      "title": "华东野战军改称第三野战军",
      "description": "根据中央军委1月15日的命令，华东野战军改称第三野战军（简称三野），陈毅任司令员兼政委，粟裕任副司令员兼第二副政委，谭震林任第一副政委，张震任参谋长，唐亮任政治部主任，钟期光任政治部副主任。",
      "phase": 4,
      "lng": null,
      "lat": null,
      "has_coords": false,
      "is_international": false
    },